city,city_ascii,lat,lng,country,iso2,iso3,admin_name,capital,population,id
Al Fujayrah,Al Fujayrah,25.1234,56.3375,United Arab Emirates,AE,ARE,Al Fujayrah,admin,94163,1784909196
Ras al Khaymah,Ras al Khaymah,25.7915,55.9428,United Arab Emirates,AE,ARE,Ra’s al Khaymah,admin,160849,1784053892
Al Ayn,Al Ayn,24.2305,55.74,United Arab Emirates,AE,ARE,Abū Z̧aby,,408733,1784674685
Abu Dhabi,Abu Dhabi,24.4667,54.3666,United Arab Emirates,AE,ARE,Abū Z̧aby,primary,603492,1784176710
Sharjah,Sharjah,25.3714,55.4065,United Arab Emirates,AE,ARE,Ash Shāriqah,admin,1103027,1784152993
Dubai,Dubai,25.23,55.28,United Arab Emirates,AE,ARE,Dubayy,admin,1379000,1784736618
Wiener Neustadt,Wiener Neustadt,47.816,16.25,Austria,AT,AUT,Niederösterreich,minor,82762,1040389518
Klagenfurt,Klagenfurt,46.6203,14.31,Austria,AT,AUT,Kärnten,admin,90610,1040149651
Innsbruck,Innsbruck,47.2804,11.41,Austria,AT,AUT,Tirol,admin,155214,1040038924
Salzburg,Salzburg,47.8105,13.04,Austria,AT,AUT,Salzburg,admin,206279,1040312147
Graz,Graz,47.0778,15.41,Austria,AT,AUT,Steiermark,admin,263234,1040184559
Linz,Linz,48.3192,14.2888,Austria,AT,AUT,Oberösterreich,admin,349161,1040261171
Vienna,Vienna,48.2,16.3666,Austria,AT,AUT,Wien,primary,2400000,1040261752
Hasselt,Hasselt,50.964,5.484,Belgium,BE,BEL,Flanders,minor,69222,1056617022
Mons,Mons,50.446,3.939,Belgium,BE,BEL,Wallonia,minor,91277,1056836704
Namur,Namur,50.4704,4.87,Belgium,BE,BEL,Wallonia,admin,106284,1056954156
Brugge,Brugge,51.2204,3.23,Belgium,BE,BEL,Flanders,minor,146469,1056953902
Charleroi,Charleroi,50.4204,4.45,Belgium,BE,BEL,Wallonia,minor,345367,1056263311
Gent,Gent,51.03,3.7,Belgium,BE,BEL,Flanders,minor,444336,1056062897
Liège,Liege,50.63,5.58,Belgium,BE,BEL,Wallonia,minor,749110,1056513284
Antwerpen,Antwerpen,51.2204,4.415,Belgium,BE,BEL,Flanders,minor,920000,1056168623
Brussels,Brussels,50.8333,4.3333,Belgium,BE,BEL,Brussels-Capital Region,primary,1743000,1056469830
Saint Gallen,Saint Gallen,47.423,9.362,Switzerland,CH,CHE,Sankt Gallen,admin,70572,1756343098
Biel,Biel,47.1666,7.25,Switzerland,CH,CHE,Bern,,78708,1756649723
Lugano,Lugano,46.0004,8.9667,Switzerland,CH,CHE,Ticino,,105388,1756503816
Luzern,Luzern,47.0504,8.28,Switzerland,CH,CHE,Luzern,admin,250000,1756544536
Lausanne,Lausanne,46.5304,6.65,Switzerland,CH,CHE,Vaud,admin,265702,1756055099
Bern,Bern,46.9167,7.467,Switzerland,CH,CHE,Bern,primary,275329,1756374318
Basel,Basel,47.5804,7.59,Switzerland,CH,CHE,Basel-Stadt,admin,830000,1756731313
Zürich,Zurich,47.38,8.55,Switzerland,CH,CHE,Zürich,admin,1108000,1756539143
Geneva,Geneva,46.21,6.14,Switzerland,CH,CHE,Genève,admin,1240000,1756810813
Jihlava,Jihlava,49.4004,15.5833,Czechia,CZ,CZE,Vysočina,admin,53921,1203810604
Usti Nad Labem,Usti Nad Labem,50.663,14.081,Czechia,CZ,CZE,Ústecký Kraj,admin,94105,1203734193
Hradec Králové,Hradec Kralove,50.206,15.812,Czechia,CZ,CZE,Královéhradecký Kraj,admin,95195,1203430618
České Budějovice,Ceske Budejovice,48.98,14.46,Czechia,CZ,CZE,Jihočeský Kraj ,admin,98851,1203398046
Olomouc,Olomouc,49.63,17.25,Czechia,CZ,CZE,Olomoucký Kraj,admin,101268,1203328061
Liberec,Liberec,50.8,15.08,Czechia,CZ,CZE,Liberecký Kraj,admin,102175,1203577727
Pardubice,Pardubice,50.0404,15.76,Czechia,CZ,CZE,Pardubický Kraj,admin,107064,1203857442
Zlín,Zlin,49.2304,17.65,Czechia,CZ,CZE,Zlínský Kraj,admin,124610,1203582141
Pizen,Pizen,49.7404,13.36,Czechia,CZ,CZE,Plzeňský Kraj,admin,164180,1203402469
Brno,Brno,49.2004,16.61,Czechia,CZ,CZE,Jihomoravský Kraj,admin,388277,1203676514
Ostrava,Ostrava,49.8304,18.25,Czechia,CZ,CZE,Moravskoslezský Kraj ,admin,478963,1203687206
Prague,Prague,50.0833,14.466,Czechia,CZ,CZE,"Praha, Hlavní Město",primary,1162000,1203744823
Hof,Hof,50.317,11.9167,Germany,DE,DEU,Bavaria,minor,56153,1276561363
Coburg,Coburg,50.2666,10.9666,Germany,DE,DEU,Bavaria,minor,61054,1276428862
Stralsund,Stralsund,54.3004,13.1,Germany,DE,DEU,Mecklenburg-Western Pomerania,minor,61368,1276640152
Gießen,Giessen,50.5837,8.65,Germany,DE,DEU,Hesse,minor,82358,1276576770
Rosenheim,Rosenheim,47.8503,12.1333,Germany,DE,DEU,Bavaria,minor,92809,1276301675
Schwerin,Schwerin,53.6333,11.4167,Germany,DE,DEU,Mecklenburg-Western Pomerania,admin,96641,1276221707
Flensburg,Flensburg,54.7837,9.4333,Germany,DE,DEU,Schleswig-Holstein,minor,97930,1276853315
Gera,Gera,50.8704,12.07,Germany,DE,DEU,Thuringia,minor,104659,1276548165
Jena,Jena,50.9304,11.58,Germany,DE,DEU,Thuringia,minor,104712,1276659978
Cottbus,Cottbus,51.7704,14.33,Germany,DE,DEU,Brandenburg,minor,105067,1276436655
Bremerhaven,Bremerhaven,53.5504,8.58,Germany,DE,DEU,Bremen,minor,137751,1276991229
Göttingen,Gottingen,51.5204,9.92,Germany,DE,DEU,Lower Saxony,minor,139419,1276211234
Ingolstadt,Ingolstadt,48.7704,11.45,Germany,DE,DEU,Bavaria,minor,163325,1276803150
Regensburg,Regensburg,49.0204,12.12,Germany,DE,DEU,Bavaria,minor,164359,1276000325
Oldenburg,Oldenburg,53.13,8.22,Germany,DE,DEU,Lower Saxony,minor,167458,1276946953
Würzburg,Wurzburg,49.8004,9.95,Germany,DE,DEU,Bavaria,minor,168561,1276233514
Ulm,Ulm,48.4004,10,Germany,DE,DEU,Baden-Württemberg,minor,172955,1276002212
Mainz,Mainz,49.9825,8.2732,Germany,DE,DEU,Rhineland-Palatinate,admin,184997,1276801317
Rostock,Rostock,54.0704,12.15,Germany,DE,DEU,Mecklenburg-Western Pomerania,,203080,1276210265
Erfurt,Erfurt,50.9701,11.03,Germany,DE,DEU,Thuringia,admin,203254,1276924655
Potsdam,Potsdam,52.4004,13.07,Germany,DE,DEU,Brandenburg,admin,218095,1276395100
Magdeburg,Magdeburg,52.1304,11.62,Germany,DE,DEU,Saxony-Anhalt,admin,229826,1276418236
Osnabrück,Osnabruck,52.2804,8.05,Germany,DE,DEU,Lower Saxony,minor,231268,1276554949
Lübeck,Lubeck,53.8704,10.67,Germany,DE,DEU,Schleswig-Holstein,minor,235390,1276852342
Fürth,Furth,49.47,11,Germany,DE,DEU,Bavaria,minor,237844,1276580165
Braunschweig,Braunschweig,52.25,10.5,Germany,DE,DEU,Lower Saxony,minor,244715,1276941443
Freiburg,Freiburg,48.0004,7.8699,Germany,DE,DEU,Baden-Württemberg,minor,254889,1276371228
Kiel,Kiel,54.3304,10.13,Germany,DE,DEU,Schleswig-Holstein,admin,269427,1276305306
Münster,Munster,51.9704,7.62,Germany,DE,DEU,North Rhine-Westphalia,minor,270184,1276714504
Kassel,Kassel,51.3,9.5,Germany,DE,DEU,Hesse,minor,289924,1276791686
Chemnitz,Chemnitz,50.83,12.92,Germany,DE,DEU,Saxony,minor,302643,1276519956
Koblenz,Koblenz,50.3505,7.6,Germany,DE,DEU,Rhineland-Palatinate,minor,312633,1276605495
Bielefeld,Bielefeld,52.03,8.53,Germany,DE,DEU,North Rhine-Westphalia,minor,331906,1276112885
Augsburg,Augsburg,48.35,10.9,Germany,DE,DEU,Bavaria,minor,358989,1276314100
Karlsruhe,Karlsruhe,49,8.4,Germany,DE,DEU,Baden-Württemberg,minor,377487,1276923210
Heidelberg,Heidelberg,49.42,8.7,Germany,DE,DEU,Baden-Württemberg,minor,426590,1276519742
Leipzig,Leipzig,51.3354,12.41,Germany,DE,DEU,Saxony,minor,542529,1276563678
Dortmund,Dortmund,51.53,7.45,Germany,DE,DEU,North Rhine-Westphalia,minor,588462,1276562886
Wiesbaden,Wiesbaden,50.0804,8.25,Germany,DE,DEU,Hesse,admin,617126,1276652118
Dresden,Dresden,51.05,13.75,Germany,DE,DEU,Saxony,admin,617515,1276561036
Bonn,Bonn,50.7205,7.08,Germany,DE,DEU,North Rhine-Westphalia,minor,680543,1276807850
Hannover,Hannover,52.367,9.7167,Germany,DE,DEU,Lower Saxony,admin,722490,1276457707
Bremen,Bremen,53.08,8.8,Germany,DE,DEU,Bremen,admin,724909,1276376509
Nürnberg,Nurnberg,49.45,11.08,Germany,DE,DEU,Bavaria,minor,737304,1276166609
Saarbrücken,Saarbrucken,49.2504,6.97,Germany,DE,DEU,Saarland,admin,770001,1276419711
Wuppertal,Wuppertal,51.25,7.17,Germany,DE,DEU,North Rhine-Westphalia,minor,776525,1276004611
Cologne,Cologne,50.93,6.95,Germany,DE,DEU,North Rhine-Westphalia,,1004000,1276015998
Düsseldorf,Dusseldorf,51.2204,6.78,Germany,DE,DEU,North Rhine-Westphalia,admin,1220000,1276615258
Munich,Munich,48.1299,11.575,Germany,DE,DEU,Bavaria,admin,1275000,1276692352
Duisburg,Duisburg,51.43,6.75,Germany,DE,DEU,North Rhine-Westphalia,minor,1276757,1276977172
Essen,Essen,51.45,7.0166,Germany,DE,DEU,North Rhine-Westphalia,minor,1742135,1276769247
Hamburg,Hamburg,53.55,10,Germany,DE,DEU,Hamburg,admin,1757000,1276041799
Mannheim,Mannheim,49.5004,8.47,Germany,DE,DEU,Baden-Württemberg,minor,2362000,1276150104
Frankfurt,Frankfurt,50.1,8.675,Germany,DE,DEU,Hesse,minor,2895000,1276054552
Stuttgart,Stuttgart,48.78,9.2,Germany,DE,DEU,Baden-Württemberg,admin,2944700,1276171358
Berlin,Berlin,52.5218,13.4015,Germany,DE,DEU,Berlin,primary,3406000,1276451290
Djibouti,Djibouti,11.595,43.148,Djibouti,DJ,DJI,Djibouti,primary,923000,1262028958
Esbjerg,Esbjerg,55.467,8.45,Denmark,DK,DNK,Syddanmark,minor,72205,1208757169
Aalborg,Aalborg,57.0337,9.9166,Denmark,DK,DNK,Nordjylland,admin,122219,1208789278
Odense,Odense,55.4004,10.3833,Denmark,DK,DNK,Syddanmark,minor,158222,1208194249
Århus,Aarhus,56.1572,10.2107,Denmark,DK,DNK,Midtjylland,minor,237551,1208841031
København,Kobenhavn,55.6786,12.5635,Denmark,DK,DNK,Hovedstaden,primary,1085000,1208763942
Beni Mazar,Beni Mazar,28.4904,30.81,Egypt,EG,EGY,Al Minyā,,79553,1818729843
Isna,Isna,25.2904,32.5499,Egypt,EG,EGY,Qinā,,100000,1818782058
Matruh,Matruh,31.3504,27.23,Egypt,EG,EGY,Maţrūḩ,admin,103470,1818661611
Girga,Girga,26.3304,31.88,Egypt,EG,EGY,Sūhāj,,128250,1818327836
Kafr el Sheikh,Kafr el Sheikh,31.109,30.936,Egypt,EG,EGY,Kafr ash Shaykh,admin,143970,1818743040
Samalut,Samalut,28.3004,30.71,Egypt,EG,EGY,Al Minyā,,152097,1818180512
Hurghada,Hurghada,27.23,33.83,Egypt,EG,EGY,Al Baḩr al Aḩmar,admin,157204,1818666245
Benha,Benha,30.4667,31.1833,Egypt,EG,EGY,Al Qalyūbīyah,admin,167029,1818596265
El Arish,El Arish,31.1249,33.8006,Egypt,EG,EGY,Shamāl Sīnā’,admin,178651,1818291145
Shibin el Kom,Shibin el Kom,30.592,30.9,Egypt,EG,EGY,Al Minūfīyah,admin,182900,1818787044
Rashid,Rashid,31.4604,30.39,Egypt,EG,EGY,Al Buḩayrah,,199509,1818868679
Mallawi,Mallawi,27.7304,30.84,Egypt,EG,EGY,Al Minyā,,217365,1818284236
Zagazig,Zagazig,30.5833,31.5167,Egypt,EG,EGY,Ash Sharqīyah,admin,285097,1818017750
Dumyat,Dumyat,31.4204,31.82,Egypt,EG,EGY,Dumyāţ,admin,299459,1818333966
Qena,Qena,26.1505,32.72,Egypt,EG,EGY,Qinā,admin,302027,1818868450
Kom Ombo,Kom Ombo,24.47,32.95,Egypt,EG,EGY,Aswān,,303962,1818527731
Aswan,Aswan,24.0875,32.8989,Egypt,EG,EGY,Aswān,admin,313442,1818262512
El Faiyum,El Faiyum,29.31,30.84,Egypt,EG,EGY,Al Fayyūm,admin,316772,1818281002
Tanta,Tanta,30.7904,31,Egypt,EG,EGY,Al Gharbīyah,admin,404901,1818501770
Asyut,Asyut,27.19,31.1799,Egypt,EG,EGY,Asyūţ,admin,420585,1818456592
Beni Suef,Beni Suef,29.0804,31.09,Egypt,EG,EGY,Banī Suwayf,admin,489450,1818902849
El Minya,El Minya,28.09,30.75,Egypt,EG,EGY,Al Minyā,admin,500000,1818607968
Damanhûr,Damanhur,31.0504,30.47,Egypt,EG,EGY,Al Buḩayrah,admin,500000,1818708838
Suez,Suez,30.005,32.5499,Egypt,EG,EGY,As Suways,admin,508335,1818495972
El Mansura,El Mansura,31.0504,31.38,Egypt,EG,EGY,Ad Daqahlīyah,admin,600000,1818255319
Sohag,Sohag,26.5504,31.7,Egypt,EG,EGY,Sūhāj,admin,600000,1818460403
Luxor,Luxor,25.7,32.65,Egypt,EG,EGY,Al Uqşur,admin,609248,1818948225
Bur Said,Bur Said,31.26,32.29,Egypt,EG,EGY,Būr Sa‘īd,admin,623864,1818628574
Ismaïlia,Ismailia,30.5903,32.26,Egypt,EG,EGY,Al Ismā‘īlīyah,admin,656135,1818532766
El Giza,El Giza,30.01,31.19,Egypt,EG,EGY,Al Jīzah,admin,2681863,1818925479
Alexandria,Alexandria,31.2,29.95,Egypt,EG,EGY,Al Iskandarīyah,admin,4165000,1818695837
Cairo,Cairo,30.05,31.25,Egypt,EG,EGY,Al Qāhirah,primary,11893000,1818253931
Arrecife,Arrecife,28.969,-13.5378,Spain,ES,ESP,Canary Islands,,52944,1724630905
Linares,Linares,38.0833,-3.6334,Spain,ES,ESP,Andalusia,,59761,1724047784
Guadalajara,Guadalajara,40.6337,-3.1666,Spain,ES,ESP,Castille-La Mancha,minor,72850,1724317859
Toledo,Toledo,39.867,-4.0167,Spain,ES,ESP,Castille-La Mancha,admin,74632,1724171411
Ceuta,Ceuta,35.889,-5.307,Spain,ES,ESP,Ceuta,,78674,1724324416
Lorca,Lorca,37.6886,-1.6985,Spain,ES,ESP,Murcia,,86119,1724565149
Santiago de Compostela,Santiago de Compostela,42.8829,-8.5411,Spain,ES,ESP,Galicia,admin,92430,1724547778
Algeciras,Algeciras,36.1267,-5.4665,Spain,ES,ESP,Andalusia,,111027,1724355681
Jaén,Jaen,37.7704,-3.8,Spain,ES,ESP,Andalusia,minor,116400,1724699771
Ourense,Ourense,42.33,-7.87,Spain,ES,ESP,Galicia,minor,118107,1724571895
Tarragona,Tarragona,41.1204,1.25,Spain,ES,ESP,Catalonia,minor,126291,1724296961
León,Leon,42.58,-5.57,Spain,ES,ESP,Castille-Leon,minor,136227,1724907542
Badajoz,Badajoz,38.8804,-6.97,Spain,ES,ESP,Extremadura,minor,140133,1724759742
Melilla,Melilla,35.3,-2.95,Spain,ES,ESP,Melilla,,141308,1724144891
Logroño,Logrono,42.4704,-2.43,Spain,ES,ESP,La Rioja,admin,143698,1724721513
Huelva,Huelva,37.2504,-6.9299,Spain,ES,ESP,Andalusia,minor,144174,1724420824
Albacete,Albacete,39.0003,-1.87,Spain,ES,ESP,Castille-La Mancha,minor,158094,1724000069
Salamanca,Salamanca,40.9704,-5.67,Spain,ES,ESP,Castille-Leon,minor,162353,1724960825
Burgos,Burgos,42.3504,-3.68,Spain,ES,ESP,Castille-Leon,minor,170183,1724993285
Almería,Almeria,36.8303,-2.43,Spain,ES,ESP,Andalusia,minor,179405,1724745640
Castello,Castello,39.9704,-0.05,Spain,ES,ESP,Valencia,minor,180610,1724579885
Mataró,Mataro,41.54,2.45,Spain,ES,ESP,Catalonia,,183293,1724901780
Marbella,Marbella,36.5166,-4.8833,Spain,ES,ESP,Andalusia,,186131,1724685705
Cartagena,Cartagena,37.6004,-0.98,Spain,ES,ESP,Murcia,,201274,1724143241
Santander,Santander,43.3805,-3.8,Spain,ES,ESP,Cantabria,admin,208763,1724247413
Vitoria,Vitoria,42.85,-2.67,Spain,ES,ESP,Basque Country,admin,224578,1724975338
Oviedo,Oviedo,43.3505,-5.83,Spain,ES,ESP,Asturias,admin,235651,1724090743
Pamplona,Pamplona,42.82,-1.65,Spain,ES,ESP,Navarre,admin,274545,1724483329
Cádiz,Cadiz,36.535,-6.225,Spain,ES,ESP,Andalusia,minor,283157,1724502822
Alicante,Alicante,38.3512,-0.4836,Spain,ES,ESP,Valencia,minor,315863,1724923163
Córdoba,Cordoba,37.88,-4.77,Spain,ES,ESP,Andalusia,minor,321376,1724706440
Valladolid,Valladolid,41.65,-4.75,Spain,ES,ESP,Castille-Leon,admin,322304,1724133771
Gijón,Gijon,43.53,-5.67,Spain,ES,ESP,Asturias,,335972,1724170659
Santa Cruz de Tenerife,Santa Cruz de Tenerife,28.47,-16.25,Spain,ES,ESP,Canary Islands,admin,336061,1724813158
San Sebastián,San Sebastian,43.3204,-1.98,Spain,ES,ESP,Basque Country,minor,357468,1724910555
La Coruña,La Coruna,43.33,-8.42,Spain,ES,ESP,Galicia,minor,370610,1724417375
Palma,Palma,39.5743,2.6542,Spain,ES,ESP,Balearic Islands,admin,375773,1724728111
Las Palmas,Las Palmas,28.1,-15.43,Spain,ES,ESP,Canary Islands,admin,378495,1724501748
Vigo,Vigo,42.22,-8.73,Spain,ES,ESP,Galicia,,378952,1724045676
Granada‎,Granada,37.165,-3.585,Spain,ES,ESP,Andalusia,minor,388290,1724929320
Murcia,Murcia,37.98,-1.13,Spain,ES,ESP,Murcia,admin,406807,1724107739
Málaga,Malaga,36.7204,-4.42,Spain,ES,ESP,Andalusia,minor,550058,1724397372
Zaragoza,Zaragoza,41.65,-0.89,Spain,ES,ESP,Aragon,admin,649404,1724907391
Valencia,Valencia,39.485,-0.4,Spain,ES,ESP,Valencia,admin,808000,1724981666
Bilbao,Bilbao,43.25,-2.93,Spain,ES,ESP,Basque Country,minor,875552,1724331267
Seville,Seville,37.405,-5.98,Spain,ES,ESP,Andalusia,admin,1212045,1724991838
Barcelona,Barcelona,41.3833,2.1834,Spain,ES,ESP,Catalonia,admin,4920000,1724594040
Madrid,Madrid,40.4,-3.6834,Spain,ES,ESP,Madrid,primary,5567000,1724616994
St.-Brieuc,St.-Brieuc,48.5167,-2.7833,France,FR,FRA,Bretagne,minor,53223,1250574796
Ajaccio,Ajaccio,41.9271,8.7283,France,FR,FRA,Corsica,admin,54364,1250622666
Tarbes,Tarbes,43.2333,0.0833,France,FR,FRA,Occitanie,minor,54854,1250001722
Brive,Brive,45.1504,1.5333,France,FR,FRA,Nouvelle-Aquitaine,,55448,1250549859
Agen,Agen,44.2004,0.6333,France,FR,FRA,Nouvelle-Aquitaine,minor,58223,1250059626
Cherbourg,Cherbourg,49.6504,-1.65,France,FR,FRA,Normandie,,60991,1250026751
Troyes,Troyes,48.3404,4.0834,France,FR,FRA,Grand Est,minor,61703,1250800856
Arras,Arras,50.2833,2.7833,France,FR,FRA,Hauts-de-France,minor,64165,1250447540
Bourges,Bourges,47.0837,2.4,France,FR,FRA,Centre-Val de Loire,minor,72340,1250043242
Roanne,Roanne,46.0333,4.0667,France,FR,FRA,Auvergne-Rhône-Alpes,,73315,1250674978
La Rochelle,La Rochelle,46.1667,-1.15,France,FR,FRA,Nouvelle-Aquitaine,minor,76997,1250623782
Béziers,Beziers,43.3505,3.21,France,FR,FRA,Occitanie,,81438,1250666824
Lorient,Lorient,47.7504,-3.3666,France,FR,FRA,Bretagne,,84952,1250615711
Versailles,Versailles,48.8005,2.1333,France,FR,FRA,Île-de-France,minor,85416,1250143827
Poitier,Poitier,46.5833,0.3333,France,FR,FRA,Nouvelle-Aquitaine,minor,85960,1250812174
Calais,Calais,50.9504,1.8333,France,FR,FRA,Hauts-de-France,,92201,1250081128
Annecy,Annecy,45.9,6.1167,France,FR,FRA,Auvergne-Rhône-Alpes,minor,105749,1250551848
Besançon,Besancon,47.23,6.03,France,FR,FRA,Bourgogne-Franche-Comté,minor,128426,1250182013
Amiens,Amiens,49.9004,2.3,France,FR,FRA,Hauts-de-France,minor,143086,1250794759
Le Mans,Le Mans,48.0004,0.1,France,FR,FRA,Pays de la Loire,minor,144515,1250829671
Brest,Brest,48.3904,-4.495,France,FR,FRA,Bretagne,,144899,1250882453
Biarritz,Biarritz,43.4733,-1.5616,France,FR,FRA,Nouvelle-Aquitaine,,145348,1250324713
Perpignan,Perpignan,42.7,2.9,France,FR,FRA,Occitanie,minor,146620,1250102680
Aix-en-Provence,Aix-en-Provence,43.52,5.45,France,FR,FRA,Provence-Alpes-Côte d’Azur,,146821,1250001687
Limoges,Limoges,45.83,1.25,France,FR,FRA,Nouvelle-Aquitaine,minor,152199,1250736774
Nîmes,Nimes,43.8304,4.35,France,FR,FRA,Occitanie,minor,169547,1250417467
Dijon,Dijon,47.3304,5.03,France,FR,FRA,Bourgogne-Franche-Comté,admin,169946,1250505606
Angers,Angers,47.48,-0.53,France,FR,FRA,Pays de la Loire,minor,188380,1250962174
Caen,Caen,49.1838,-0.35,France,FR,FRA,Normandie,minor,190099,1250001272
Reims,Reims,49.2504,4.03,France,FR,FRA,Grand Est,,196565,1250608730
Rennes,Rennes,48.1,-1.67,France,FR,FRA,Bretagne,admin,209375,1250363682
Mulhouse,Mulhouse,47.7504,7.35,France,FR,FRA,Grand Est,,215454,1250218452
Orléans,Orleans,47.9004,1.9,France,FR,FRA,Centre-Val de Loire,admin,217301,1250441405
Clermont-Ferrand,Clermont-Ferrand,45.78,3.08,France,FR,FRA,Auvergne-Rhône-Alpes,minor,233050,1250135509
Tours,Tours,47.3804,0.6999,France,FR,FRA,Centre-Val de Loire,minor,236096,1250635972
Le Havre,Le Havre,49.505,0.105,France,FR,FRA,Normandie,,242124,1250775297
Melun,Melun,48.5333,2.6666,France,FR,FRA,Île-de-France,minor,249432,1250913458
Saint-Étienne,Saint-Etienne,45.4304,4.38,France,FR,FRA,Auvergne-Rhône-Alpes,minor,265684,1250000540
Nancy,Nancy,48.6837,6.2,France,FR,FRA,Grand Est,minor,268976,1250925250
Montpellier,Montpellier,43.6104,3.87,France,FR,FRA,Occitanie,minor,327254,1250819356
Toulon,Toulon,43.1342,5.9188,France,FR,FRA,Provence-Alpes-Côte d’Azur,minor,357693,1250541629
Grenoble,Grenoble,45.1804,5.72,France,FR,FRA,Auvergne-Rhône-Alpes,minor,388574,1250071647
Metz,Metz,49.1203,6.18,France,FR,FRA,Grand Est,minor,409186,1250778717
Nantes,Nantes,47.2104,-1.59,France,FR,FRA,Pays de la Loire,admin,438537,1250091495
Strasbourg,Strasbourg,48.58,7.75,France,FR,FRA,Grand Est,admin,439972,1250789140
Rouen,Rouen,49.4304,1.08,France,FR,FRA,Normandie,admin,532559,1250372069
Bordeaux,Bordeaux,44.85,-0.595,France,FR,FRA,Nouvelle-Aquitaine,admin,803000,1250449238
Toulouse,Toulouse,43.62,1.4499,France,FR,FRA,Occitanie,admin,847000,1250258110
Nice,Nice,43.715,7.265,France,FR,FRA,Provence-Alpes-Côte d’Azur,minor,927000,1250774553
Lille,Lille,50.65,3.08,France,FR,FRA,Hauts-de-France,admin,1044000,1250071961
Marseille,Marseille,43.29,5.375,France,FR,FRA,Provence-Alpes-Côte d’Azur,admin,1400000,1250774071
Lyon,Lyon,45.77,4.83,France,FR,FRA,Auvergne-Rhône-Alpes,admin,1423000,1250196189
Paris,Paris,48.8667,2.3333,France,FR,FRA,Île-de-France,primary,9904000,1250015082
Port-Gentil,Port-Gentil,-0.72,8.78,Gabon,GA,GAB,Ogooué-Maritime,admin,116836,1266383028
Libreville,Libreville,0.3854,9.458,Gabon,GA,GAB,Estuaire,primary,578156,1266952885
Ayr,Ayr,55.4504,-4.6167,United Kingdom,GB,GBR,South Ayrshire,admin,69042,1826430700
Scarborough,Scarborough,54.2804,-0.43,United Kingdom,GB,GBR,North Yorkshire,,70571,1826723231
Carlisle,Carlisle,54.88,-2.93,United Kingdom,GB,GBR,Cumbria,admin,72633,1826843688
Greenock,Greenock,55.9333,-4.75,United Kingdom,GB,GBR,Inverclyde,admin,74635,1826864377
Londonderry,Londonderry,55.0004,-7.3333,United Kingdom,GB,GBR,Derry and Strabane,admin,83652,1826603241
Chester,Chester,53.2,-2.92,United Kingdom,GB,GBR,Cheshire West and Chester,admin,89531,1826441668
Bath,Bath,51.3837,-2.35,United Kingdom,GB,GBR,Bath and North East Somerset,admin,93238,1826611282
Exeter,Exeter,50.7004,-3.53,United Kingdom,GB,GBR,Devon,admin,113118,1826840903
Cambridge,Cambridge,52.2004,0.1166,United Kingdom,GB,GBR,Cambridgeshire,admin,128488,1826229713
Peterborough,Peterborough,52.5804,-0.25,United Kingdom,GB,GBR,Peterborough,admin,140141,1826626144
Ipswich,Ipswich,52.0703,1.17,United Kingdom,GB,GBR,Suffolk,admin,143767,1826629486
Dundee,Dundee,56.4704,-3,United Kingdom,GB,GBR,Dundee City,admin,151592,1826581481
York,York,53.9704,-1.08,United Kingdom,GB,GBR,York,admin,158947,1826149980
Aberdeen,Aberdeen,57.1704,-2.08,United Kingdom,GB,GBR,Aberdeen City,admin,189364,1826324306
Norwich,Norwich,52.6304,1.3,United Kingdom,GB,GBR,Norfolk,admin,190756,1826688051
Oxford,Oxford,51.7704,-1.25,United Kingdom,GB,GBR,Oxfordshire,admin,192796,1826689568
Luton,Luton,51.8804,-0.42,United Kingdom,GB,GBR,Luton,admin,235958,1826630574
Plymouth,Plymouth,50.3854,-4.16,United Kingdom,GB,GBR,Plymouth,admin,247297,1826947183
Blackpool,Blackpool,53.8304,-3.05,United Kingdom,GB,GBR,Blackpool,admin,272792,1826093175
Swansea,Swansea,51.63,-3.95,United Kingdom,GB,GBR,Swansea,admin,294339,1826574888
Kingston upon Hull,Kingston upon Hull,53.7504,-0.33,United Kingdom,GB,GBR,"Kingston upon Hull, City of",admin,302296,1826028894
Reading,Reading,51.47,-0.98,United Kingdom,GB,GBR,Reading,admin,369804,1826869043
Southampton,Southampton,50.9,-1.4,United Kingdom,GB,GBR,Southampton,admin,384417,1826602892
Coventry,Coventry,52.4204,-1.5,United Kingdom,GB,GBR,Coventry,admin,388271,1826979198
Stoke,Stoke,53.0004,-2.18,United Kingdom,GB,GBR,Stoke-on-Trent,admin,390801,1826799578
Middlesbrough,Middlesbrough,54.5804,-1.23,United Kingdom,GB,GBR,Redcar and Cleveland,admin,416042,1826407067
Bournemouth,Bournemouth,50.73,-1.9,United Kingdom,GB,GBR,Bournemouth,admin,426945,1826769743
Portsmouth,Portsmouth,50.8003,-1.08,United Kingdom,GB,GBR,Portsmouth,admin,442252,1826964096
Belfast,Belfast,54.6,-5.96,United Kingdom,GB,GBR,Belfast,,450406,1826509389
Sunderland,Sunderland,54.92,-1.38,United Kingdom,GB,GBR,Sunderland,admin,452934,1826736387
Leicester,Leicester,52.63,-1.1332,United Kingdom,GB,GBR,Leicester,admin,457983,1826431946
Bradford,Bradford,53.8,-1.75,United Kingdom,GB,GBR,Bradford,admin,501700,1826687116
Brighton,Brighton,50.8303,-0.17,United Kingdom,GB,GBR,Brighton and Hove,,503008,1826609057
Edinburgh,Edinburgh,55.9483,-3.2191,United Kingdom,GB,GBR,"Edinburgh, City of",admin,504966,1826492520
Bristol,Bristol,51.45,-2.5833,United Kingdom,GB,GBR,"Bristol, City of",admin,553528,1826921049
Southend-on-Sea,Southend-on-Sea,51.55,0.72,United Kingdom,GB,GBR,Southend-on-Sea,admin,618386,1826524208
Liverpool,Liverpool,53.416,-2.918,United Kingdom,GB,GBR,Liverpool,admin,811000,1826558678
Nottingham,Nottingham,52.9703,-1.17,United Kingdom,GB,GBR,Nottingham,admin,825600,1826122597
Cardiff,Cardiff,51.5,-3.225,United Kingdom,GB,GBR,Cardiff,admin,861400,1826362422
Newcastle,Newcastle,55.0004,-1.6,United Kingdom,GB,GBR,Newcastle upon Tyne,admin,882000,1826292220
Glasgow,Glasgow,55.8744,-4.2507,United Kingdom,GB,GBR,Glasgow City,admin,1160000,1826836462
Sheffield,Sheffield,53.3667,-1.5,United Kingdom,GB,GBR,Sheffield,admin,1292900,1826289852
Leeds,Leeds,53.83,-1.58,United Kingdom,GB,GBR,Leeds,admin,1529000,1826343963
Manchester,Manchester,53.5004,-2.248,United Kingdom,GB,GBR,Manchester,admin,2230000,1826246335
Birmingham,Birmingham,52.475,-1.92,United Kingdom,GB,GBR,Birmingham,admin,2285000,1826423213
London,London,51.5,-0.1167,United Kingdom,GB,GBR,,primary,8567000,1826645935
Sukhumi,Sukhumi,43.02,41.02,Georgia,GE,GEO,Abkhazia,admin,81546,1268394475
Batumi,Batumi,41.6,41.63,Georgia,GE,GEO,Ajaria,admin,155542,1268193611
Rustavi,Rustavi,41.5704,45.05,Georgia,GE,GEO,,,157063,1268562807
Kutaisi,Kutaisi,42.25,42.73,Georgia,GE,GEO,Imereti,admin,183945,1268369835
Tbilisi,Tbilisi,41.725,44.7908,Georgia,GE,GEO,,primary,1100000,1268203191
Cayenne,Cayenne,4.933,-52.33,French Guiana,GF,GUF,,admin,61550,1254304969
Nkawkaw,Nkawkaw,6.5505,-0.78,Ghana,GH,GHA,,,62667,1288350107
Sunyani,Sunyani,7.336,-2.336,Ghana,GH,GHA,Brong-Ahafo,admin,70299,1288679588
Bawku,Bawku,11.0604,-0.24,Ghana,GH,GHA,Upper East,,73594,1288067377
Wa,Wa,10.0604,-2.5,Ghana,GH,GHA,Upper West,admin,78107,1288765586
Bolgatanga,Bolgatanga,10.7904,-0.85,Ghana,GH,GHA,Upper East,admin,82177,1288943371
Ho,Ho,6.6004,0.47,Ghana,GH,GHA,Volta,admin,93044,1288938914
Cape Coast,Cape Coast,5.1104,-1.25,Ghana,GH,GHA,Central,admin,143015,1288506097
Koforidua,Koforidua,6.0904,-0.26,Ghana,GH,GHA,Eastern,admin,156653,1288961962
Obuasi,Obuasi,6.1904,-1.66,Ghana,GH,GHA,Ashanti,,180117,1288615192
Tema,Tema,5.6404,0.01,Ghana,GH,GHA,Greater Accra,,209000,1288205885
Sekondi,Sekondi,4.9433,-1.704,Ghana,GH,GHA,Western,admin,286248,1288186231
Tamale,Tamale,9.4004,-0.84,Ghana,GH,GHA,Northern,admin,360579,1288890688
Kumasi,Kumasi,6.69,-1.63,Ghana,GH,GHA,Ashanti,admin,1646000,1288181103
Accra,Accra,5.55,-0.2167,Ghana,GH,GHA,Greater Accra,primary,2121000,1288299415
Gibraltar,Gibraltar,36.1324,-5.3781,Gibraltar,GI,GIB,,primary,187083,1292385245
Brikama,Brikama,13.2804,-16.6599,"Gambia, The",GM,GMB,Western,admin,195136,1270953861
Kissidougou,Kissidougou,9.1905,-10.12,Guinea,GN,GIN,Faranah,minor,66815,1324750427
Mamou,Mamou,10.3804,-12.1,Guinea,GN,GIN,Mamou,admin,71153,1324990909
Kankan,Kankan,10.39,-9.31,Guinea,GN,GIN,Kankan,admin,114009,1324495325
Boké,Boke,10.94,-14.3,Guinea,GN,GIN,Boké,admin,116270,1324037897
Kindia,Kindia,10.06,-12.87,Guinea,GN,GIN,Kindia,admin,117062,1324348910
Labé,Labe,11.32,-12.3,Guinea,GN,GIN,Labé,admin,140575,1324900784
Nzérékoré,Nzerekore,7.76,-8.83,Guinea,GN,GIN,N’Zérékoré,admin,168121,1324336588
Gueckedou,Gueckedou,8.554,-10.151,Guinea,GN,GIN,N’Zérékoré,minor,221715,1324580681
Conakry,Conakry,9.5315,-13.6802,Guinea,GN,GIN,Conakry,primary,1494000,1324568159
Pointe-à-Pitre,Pointe-a-Pitre,16.2415,-61.533,Guadeloupe,GP,GLP,,,145511,1312460524
Malabo,Malabo,3.75,8.7833,Equatorial Guinea,GQ,GNQ,Bioko Norte,primary,155963,1226861333
Bata,Bata,1.87,9.77,Equatorial Guinea,GQ,GNQ,Litoral,admin,173046,1226528087
Alexandroupoli,Alexandroupoli,40.8486,25.8744,Greece,GR,GRC,Anatolikí Makedonía kai Thráki,minor,52979,1300949419
Katerini,Katerini,40.2723,22.5025,Greece,GR,GRC,Kentrikí Makedonía,minor,53293,1300524464
Seres,Seres,41.086,23.5497,Greece,GR,GRC,Kentrikí Makedonía,minor,55886,1300726987
Rodos,Rodos,36.4412,28.2225,Greece,GR,GRC,Notío Aigaío,minor,56969,1300944675
Kavala,Kavala,40.9412,24.4018,Greece,GR,GRC,Anatolikí Makedonía kai Thráki,minor,59240,1300398756
Kalamata,Kalamata,37.0389,22.1142,Greece,GR,GRC,Peloponnísos,minor,71823,1300638148
Chalkida,Chalkida,38.464,23.6124,Greece,GR,GRC,Stereá Elláda,minor,71842,1300585149
Agrinio,Agrinio,38.6218,21.4077,Greece,GR,GRC,Dytikí Elláda,minor,75233,1300351677
Hania,Hania,35.5122,24.0156,Greece,GR,GRC,Kríti,minor,78728,1300233408
Ioanina,Ioanina,39.6679,20.8509,Greece,GR,GRC,Ípeiros,admin,86304,1300317204
Volos,Volos,39.37,22.95,Greece,GR,GRC,Thessalía,minor,110632,1300109851
Larissa,Larissa,39.6304,22.42,Greece,GR,GRC,Thessalía,admin,128758,1300003141
Iraklio,Iraklio,35.325,25.1305,Greece,GR,GRC,Kríti,admin,137154,1300777854
Patra,Patra,38.23,21.73,Greece,GR,GRC,Dytikí Elláda,admin,163360,1300201099
Piraeus,Piraievs,37.95,23.7,Greece,GR,GRC,Attikí,minor,466065,1300458367
Thessaloniki,Thessaloniki,40.6961,22.885,Greece,GR,GRC,Kentrikí Makedonía,admin,828000,1300397999
Athens,Athens,37.9833,23.7333,Greece,GR,GRC,Attikí,primary,3242000,1300715560
Puerto Barrios,Puerto Barrios,15.7175,-88.5927,Guatemala,GT,GTM,Izabal,admin,56605,1320517532
Mazatenango,Mazatenango,14.5304,-91.51,Guatemala,GT,GTM,Suchitepéquez,admin,64652,1320123250
Cobán,Coban,15.47,-90.38,Guatemala,GT,GTM,Alta Verapaz,admin,65194,1320020813
Totonicapán,Totonicapan,14.914,-91.358,Guatemala,GT,GTM,Totonicapán,admin,69734,1320223386
Chimaltenango,Chimaltenango,14.662,-90.82,Guatemala,GT,GTM,Chimaltenango,admin,82370,1320147012
Huehuetenango,Huehuetenango,15.3204,-91.47,Guatemala,GT,GTM,Huehuetenango,admin,85992,1320742269
Escuintla,Escuintla,14.3004,-90.78,Guatemala,GT,GTM,Escuintla,admin,107638,1320838903
San Luis,San Luis,16.2,-89.44,Guatemala,GT,GTM,Petén,minor,132470,1320642245
El Progreso,El Progreso,14.85,-90.0167,Guatemala,GT,GTM,El Progreso,admin,147197,1320849830
Quetzaltenango,Quetzaltenango,14.83,-91.52,Guatemala,GT,GTM,Quetzaltenango,admin,575263,1320083599
Guatemala,Guatemala,14.6211,-90.527,Guatemala,GT,GTM,Guatemala,primary,1024000,1320197916
Maina,Maina,13.4692,144.7332,Guam,GU,GUM,,,122411,1316874021
Bissau,Bissau,11.865,-15.5984,Guinea-Bissau,GW,GNB,Bissau,primary,403339,1624168850
Georgetown,Georgetown,6.802,-58.167,Guyana,GY,GUY,Demerara-Mahaica,primary,264350,1328160906
Hong Kong,Hong Kong,22.305,114.185,Hong Kong,HK,HKG,,,7206000,1344982653
Comayagua,Comayagua,14.4604,-87.65,Honduras,HN,HND,Comayagua,admin,71142,1340015594
Choluteca,Choluteca,13.3007,-87.1908,Honduras,HN,HND,Choluteca,admin,99429,1340256619
La Ceiba,La Ceiba,15.7631,-86.797,Honduras,HN,HND,Atlántida,admin,145926,1340870189
San Pedro Sula,San Pedro Sula,15.5,-88.03,Honduras,HN,HND,Cortés,admin,680091,1340568412
Tegucigalpa,Tegucigalpa,14.102,-87.2175,Honduras,HN,HND,Francisco Morazán,primary,946000,1340344059
Karlovac,Karlovac,45.4872,15.5478,Croatia,HR,HRV,Karlovačka Županija,admin,55063,1191133986
Pula,Pula,44.8687,13.8481,Croatia,HR,HRV,Istarska Županija,minor,61599,1191143009
Zadar,Zadar,44.1201,15.2623,Croatia,HR,HRV,Zadarska Županija,admin,71258,1191160875
Osijek,Osijek,45.5504,18.68,Croatia,HR,HRV,Osječko-Baranjska Županija,admin,95077,1191917921
Slavonski Brod,Slavonski Brod,45.1603,18.0156,Croatia,HR,HRV,Brodsko-Posavska Županija,admin,97718,1191097030
Rijeka,Rijeka,45.33,14.45,Croatia,HR,HRV,Primorsko-Goranska Županija,admin,170992,1191949063
Split,Split,43.5204,16.47,Croatia,HR,HRV,Splitsko-Dalmatinska Županija,admin,214741,1191440208
Zagreb,Zagreb,45.8,16,Croatia,HR,HRV,"Zagreb, Grad",primary,722526,1191233290
Gonaïves,Gonaives,19.4504,-72.6832,Haiti,HT,HTI,Artibonite,admin,166678,1332384588
Les Cayes,Les Cayes,18.2004,-73.75,Haiti,HT,HTI,Sud,admin,175457,1332587854
Cap-Haïtien,Cap-Haitien,19.7592,-72.2125,Haiti,HT,HTI,Nord,admin,281487,1332333795
Port-au-Prince,Port-au-Prince,18.541,-72.336,Haiti,HT,HTI,Ouest,primary,1998000,1332401940
Eger,Eger,47.895,20.383,Hungary,HU,HUN,Heves,admin,56647,1348559499
Zalaegerszeg,Zalaegerszeg,46.844,16.84,Hungary,HU,HUN,Zala,admin,61898,1348293073
Veszprém,Veszprem,47.091,17.911,Hungary,HU,HUN,Veszprém,admin,62023,1348279762
Békéscsaba,Bekescsaba,46.672,21.101,Hungary,HU,HUN,Békés,admin,65206,1348329493
Tatabánya,Tatabanya,47.55,18.433,Hungary,HU,HUN,Komárom-Esztergom,admin,70541,1348450358
Kaposvár,Kaposvar,46.367,17.8,Hungary,HU,HUN,Somogy,admin,108528,1348114190
Szolnok,Szolnok,47.1864,20.1794,Hungary,HU,HUN,Jász-Nagykun-Szolnok,admin,109261,1348287339
Szombathely,Szombathely,47.2253,16.6287,Hungary,HU,HUN,Vas,admin,109518,1348565183
Kecskemét,Kecskemet,46.9,19.7,Hungary,HU,HUN,Bács-Kiskun,admin,113895,1348900171
Győr,Gyor,47.7004,17.63,Hungary,HU,HUN,Győr,admin,136081,1348507878
Székesfehérvár,Szekesfehervar,47.1947,18.4081,Hungary,HU,HUN,Fejér,admin,144319,1348968301
Nyíregyháza,Nyiregyhaza,47.9653,21.7187,Hungary,HU,HUN,Szabolcs-Szatmár-Bereg,admin,176880,1348653343
Pécs,Pecs,46.0804,18.22,Hungary,HU,HUN,Pécs,admin,186262,1348611992
Szeged,Szeged,46.2504,20.15,Hungary,HU,HUN,Szeged,admin,187765,1348655615
Debrecen,Debrecen,47.5305,21.63,Hungary,HU,HUN,Debrecen,admin,231286,1348460698
Miskolc,Miskolc,48.1004,20.78,Hungary,HU,HUN,Miskolc,admin,247757,1348668815
Budapest,Budapest,47.5,19.0833,Hungary,HU,HUN,Budapest,primary,1679000,1348611435
Siena,Siena,43.317,11.35,Italy,IT,ITA,Tuscany,minor,52625,1380088439
Crotone,Crotone,39.0833,17.1233,Italy,IT,ITA,Calabria,minor,60010,1380444441
Civitavecchia,Civitavecchia,42.1004,11.8,Italy,IT,ITA,Lazio,,61316,1380282443
Benevento,Benevento,41.1337,14.75,Italy,IT,ITA,Campania,minor,61791,1380723198
L'Aquila,L'Aquila,42.3504,13.39,Italy,IT,ITA,Abruzzo,admin,68503,1380218474
Ragusa,Ragusa,36.93,14.73,Italy,IT,ITA,Sicilia,minor,68956,1380117871
Potenza,Potenza,40.642,15.799,Italy,IT,ITA,Basilicata,admin,69060,1380649430
Asti,Asti,44.93,8.21,Italy,IT,ITA,Piedmont,minor,71276,1380024585
Marsala,Marsala,37.8054,12.4387,Italy,IT,ITA,Sicilia,,77784,1380770056
Arezzo,Arezzo,43.4617,11.875,Italy,IT,ITA,Tuscany,minor,91589,1380418355
Catanzaro,Catanzaro,38.9004,16.6,Italy,IT,ITA,Calabria,admin,95251,1380650072
Bolzano,Bolzano,46.5004,11.36,Italy,IT,ITA,Trentino-Alto Adige,minor,95895,1380677819
Ancona,Ancona,43.6004,13.4999,Italy,IT,ITA,Marche,admin,100507,1380597324
Novara,Novara,45.45,8.62,Italy,IT,ITA,Piedmont,minor,100910,1380911437
Brindisi,Brindisi,40.6403,17.93,Italy,IT,ITA,Puglia,minor,104437,1380201254
Trento,Trento,46.0804,11.12,Italy,IT,ITA,Trentino-Alto Adige,admin,107808,1380953307
Barletta,Barletta,41.32,16.27,Italy,IT,ITA,Puglia,minor,107830,1380940717
Udine,Udine,46.07,13.24,Italy,IT,ITA,Friuli-Venezia Giulia,minor,119009,1380396446
Sassari,Sassari,40.73,8.57,Italy,IT,ITA,Sardegna,minor,120729,1380371433
Siracusa,Siracusa,37.0704,15.29,Italy,IT,ITA,Sicilia,minor,123657,1380071816
Ferrara,Ferrara,44.8504,11.6099,Italy,IT,ITA,Emilia-Romagna,minor,130992,1380682411
Ravenna,Ravenna,44.4204,12.22,Italy,IT,ITA,Emilia-Romagna,minor,134631,1380964180
Perugia,Perugia,43.1104,12.39,Italy,IT,ITA,Umbria,admin,149125,1380939013
Foggia,Foggia,41.4605,15.56,Italy,IT,ITA,Puglia,minor,155203,1380084447
Livorno,Livorno,43.5511,10.3023,Italy,IT,ITA,Tuscany,minor,156274,1380159305
Lecce,Lecce,40.3604,18.15,Italy,IT,ITA,Puglia,minor,162582,1380057273
Parma,Parma,44.8104,10.32,Italy,IT,ITA,Emilia-Romagna,minor,166011,1380655938
Modena,Modena,44.65,10.92,Italy,IT,ITA,Emilia-Romagna,minor,175502,1380306270
Treviso,Treviso,45.67,12.24,Italy,IT,ITA,Veneto,minor,177309,1380900516
Reggio di Calabria,Reggio di Calabria,38.115,15.6414,Italy,IT,ITA,Calabria,minor,180353,1380630212
Bergamo,Bergamo,45.7004,9.67,Italy,IT,ITA,Lombardy,minor,200000,1380253521
Taranto,Taranto,40.5084,17.23,Italy,IT,ITA,Puglia,minor,202033,1380707445
Pisa,Pisa,43.7205,10.4,Italy,IT,ITA,Tuscany,minor,203336,1380310225
Trieste,Trieste,45.6504,13.8,Italy,IT,ITA,Friuli-Venezia Giulia,admin,216035,1380102581
Como,Como,45.81,9.08,Italy,IT,ITA,Lombardy,minor,250000,1380994905
Caserta,Caserta,41.06,14.3374,Italy,IT,ITA,Campania,minor,250000,1380614087
Messina,Messina,38.2005,15.55,Italy,IT,ITA,Sicilia,minor,252026,1380622386
Venice,Venice,45.4387,12.335,Italy,IT,ITA,Veneto,admin,270816,1380660414
Cagliari,Cagliari,39.2224,9.104,Italy,IT,ITA,Sardegna,admin,291511,1380685705
Pescara,Pescara,42.4554,14.2187,Italy,IT,ITA,Abruzzo,minor,314789,1380000966
Verona,Verona,45.4404,10.99,Italy,IT,ITA,Veneto,minor,347459,1380324879
Bologna,Bologna,44.5004,11.34,Italy,IT,ITA,Emilia-Romagna,admin,488172,1380202039
Bari,Bari,41.1142,16.8728,Italy,IT,ITA,Puglia,admin,500577,1380991126
Genoa,Genoa,44.41,8.93,Italy,IT,ITA,Liguria,admin,647497,1380716540
Catania,Catania,37.5,15.08,Italy,IT,ITA,Sicilia,minor,674542,1380562508
Palermo,Palermo,38.125,13.35,Italy,IT,ITA,Sicilia,admin,863000,1380428434
Salerno,Salerno,40.6804,14.7699,Italy,IT,ITA,Campania,minor,954265,1380863448
Florence,Florence,43.78,11.25,Italy,IT,ITA,Tuscany,admin,1500000,1380726561
Turin,Turin,45.0704,7.67,Italy,IT,ITA,Piedmont,admin,1652000,1380244627
Naples,Naples,40.84,14.245,Italy,IT,ITA,Campania,admin,2250000,1380646673
Milan,Milan,45.47,9.205,Italy,IT,ITA,Lombardy,admin,2945000,1380724377
Rome,Rome,41.896,12.4833,Italy,IT,ITA,Lazio,primary,3339000,1380382862
Half Way Tree,Half Way Tree,18.0333,-76.8,Jamaica,JM,JAM,Saint Andrew,admin,96494,1388715163
Montego Bay,Montego Bay,18.4667,-77.9167,Jamaica,JM,JAM,Saint James,admin,126008,1388955058
May Pen,May Pen,17.9666,-77.2333,Jamaica,JM,JAM,Clarendon,admin,135142,1388671677
Spanish Town,Spanish Town,17.9833,-76.95,Jamaica,JM,JAM,Saint Catherine,admin,432704,1388689196
Kingston,Kingston,17.9771,-76.7674,Jamaica,JM,JAM,,primary,937700,1388709177
Al Mafraq,Al Mafraq,32.2833,36.2333,Jordan,JO,JOR,Al Mafraq,admin,57118,1400040712
Al Karak,Al Karak,31.1851,35.7047,Jordan,JO,JOR,Al Karak,admin,80062,1400073941
Al Aqabah,Al Aqabah,29.527,35.0777,Jordan,JO,JOR,Al ‘Aqabah,admin,95048,1400618058
As Salt,As Salt,32.0392,35.7272,Jordan,JO,JOR,Al Balqā’,admin,140689,1400470384
Irbid,Irbid,32.55,35.85,Jordan,JO,JOR,Irbid,admin,650000,1400221568
Az Zarqa,Az Zarqa,32.07,36.1,Jordan,JO,JOR,Az Zarqā’,admin,894691,1400161837
Amman,Amman,31.95,35.9333,Jordan,JO,JOR,Al ‘Āşimah,primary,1060000,1400522593
Kanoya,Kanoya,31.3833,130.85,Japan,JP,JPN,Kagoshima,,82335,1392748014
Maizuru,Maizuru,35.4504,135.3333,Japan,JP,JPN,Kyōto,,92465,1392353780
Tsuruoka,Tsuruoka,38.7004,139.8302,Japan,JP,JPN,Yamagata,,99820,1392935450
Sakata,Sakata,38.92,139.8501,Japan,JP,JPN,Yamagata,,100446,1392418961
Kitami,Kitami,43.8504,143.9,Japan,JP,JPN,Hokkaidō,,113137,1392099278
Otaru,Otaru,43.1887,140.9783,Japan,JP,JPN,Hokkaidō,,143792,1392240421
Tottori,Tottori,35.5004,134.2333,Japan,JP,JPN,Tottori,,154098,1392416969
Muroran,Muroran,42.35,140.98,Japan,JP,JPN,Hokkaidō,,155676,1392259868
Matsue,Matsue,35.467,133.0666,Japan,JP,JPN,Shimane,admin,156811,1392692238
Takaoka,Takaoka,36.67,137,Japan,JP,JPN,Toyama,,170077,1392754231
Obihiro,Obihiro,42.9304,143.17,Japan,JP,JPN,Hokkaidō,,173890,1392712158
Tomakomai,Tomakomai,42.6504,141.55,Japan,JP,JPN,Hokkaidō,,174806,1392760442
Hirosaki,Hirosaki,40.57,140.47,Japan,JP,JPN,Aomori,,174972,1392794397
Nagaoka,Nagaoka,37.4504,138.86,Japan,JP,JPN,Niigata,,195318,1392479949
Kure,Kure,34.251,132.5656,Japan,JP,JPN,Hiroshima,,196991,1392991987
Kōfu,Kofu,35.6504,138.5833,Japan,JP,JPN,Yamanashi,admin,197540,1392307565
Kushiro,Kushiro,42.975,144.3747,Japan,JP,JPN,Hokkaidō,,198566,1392810778
Matsumoto,Matsumoto,36.2404,137.97,Japan,JP,JPN,Nagano,,224926,1392373962
Sasebo,Sasebo,33.1631,129.7177,Japan,JP,JPN,Nagasaki,,237444,1392043131
Hachinohe,Hachinohe,40.51,141.54,Japan,JP,JPN,Aomori,,239046,1392220933
Shimonoseki,Shimonoseki,33.9654,130.9454,Japan,JP,JPN,Fukuoka,,245786,1392516557
Fukui,Fukui,36.0704,136.22,Japan,JP,JPN,Fukui,admin,248707,1392897510
Yamagata,Yamagata,38.2705,140.32,Japan,JP,JPN,Yamagata,admin,272209,1392300081
Fukushima,Fukushima,37.74,140.47,Japan,JP,JPN,Fukushima,admin,294237,1392570027
Morioka,Morioka,39.72,141.13,Japan,JP,JPN,Iwate,admin,295172,1392981957
Aomori,Aomori,40.825,140.71,Japan,JP,JPN,Aomori,admin,298394,1392083898
Hakodate,Hakodate,41.795,140.74,Japan,JP,JPN,Hokkaidō,,302984,1392708558
Akita,Akita,39.71,140.09,Japan,JP,JPN,Akita,admin,320069,1392129688
Miyazaki,Miyazaki,31.9182,131.4184,Japan,JP,JPN,Miyazaki,admin,324384,1392216224
Toyama,Toyama,36.7,137.23,Japan,JP,JPN,Toyama,admin,332812,1392000560
Takamatsu,Takamatsu,34.3447,134.0448,Japan,JP,JPN,Kagawa,admin,334223,1392427161
Kōchi,Kochi,33.5624,133.5375,Japan,JP,JPN,Kōchi,admin,335570,1392086071
Kawagoe,Kawagoe,35.9177,139.4911,Japan,JP,JPN,Saitama,,337931,1392825080
Kōriyama,Koriyama,37.41,140.38,Japan,JP,JPN,Fukushima,,340560,1392675180
Maebashi,Maebashi,36.3927,139.0727,Japan,JP,JPN,Gunma,admin,344871,1392333295
Mito,Mito,36.3704,140.48,Japan,JP,JPN,Ibaraki,admin,353892,1392665227
Asahikawa,Asahikawa,43.755,142.38,Japan,JP,JPN,Hokkaidō,,356612,1392380358
Iwaki,Iwaki,37.0553,140.89,Japan,JP,JPN,Fukushima,,357309,1392158088
Gifu,Gifu,35.4231,136.7628,Japan,JP,JPN,Gifu,admin,412895,1392097787
Nagasaki,Nagasaki,32.765,129.885,Japan,JP,JPN,Nagasaki,admin,435455,1392162566
Wakayama,Wakayama,34.2231,135.1677,Japan,JP,JPN,Wakayama,admin,440006,1392907296
Tokushima,Tokushima,34.0674,134.5525,Japan,JP,JPN,Tokushima,admin,443760,1392795984
Ōita,Oita,33.2432,131.5979,Japan,JP,JPN,Ōita,admin,448907,1392081193
Tsu,Tsu,34.7171,136.5167,Japan,JP,JPN,Mie,admin,500000,1392082102
Matsuyama,Matsuyama,33.8455,132.7658,Japan,JP,JPN,Ehime,admin,533541,1392220893
Ōtsu,Otsu,35.0064,135.8674,Japan,JP,JPN,Shiga,admin,536976,1392164106
Kanazawa,Kanazawa,36.56,136.64,Japan,JP,JPN,Ishikawa,admin,551249,1392684679
Kagoshima,Kagoshima,31.586,130.5611,Japan,JP,JPN,Kagoshima,admin,555352,1392120675
Niigata,Niigata,37.92,139.04,Japan,JP,JPN,Niigata,admin,569797,1392913753
Hachiōji,Hachioji,35.6577,139.3261,Japan,JP,JPN,Tōkyō,,579399,1392172935
Nagano,Nagano,36.65,138.17,Japan,JP,JPN,Nagano,admin,594311,1392603439
Utsunomiya,Utsunomiya,36.55,139.87,Japan,JP,JPN,Tochigi,admin,667752,1392506125
Shizuoka,Shizuoka,34.9858,138.3854,Japan,JP,JPN,Shizuoka,admin,701561,1392235505
Kumamoto,Kumamoto,32.8009,130.7006,Japan,JP,JPN,Kumamoto,admin,718232,1392106283
Okayama,Okayama,34.672,133.9171,Japan,JP,JPN,Okayama,admin,866092,1392954750
Naha,Naha,26.2072,127.673,Japan,JP,JPN,Okinawa,admin,905238,1392583118
Hamamatsu,Hamamatsu,34.7181,137.7327,Japan,JP,JPN,Shizuoka,,977023,1392174500
Kitakyūshū,Kitakyushu,33.8704,130.82,Japan,JP,JPN,Fukuoka,,997536,1392129541
Kawasaki,Kawasaki,35.53,139.705,Japan,JP,JPN,Kanagawa,,1437266,1392879600
Kōbe,Kobe,34.68,135.17,Japan,JP,JPN,Hyōgo,admin,1528478,1392978082
Kyoto,Kyoto,35.03,135.75,Japan,JP,JPN,Kyōto,admin,1805000,1392622735
Hiroshima,Hiroshima,34.3878,132.4429,Japan,JP,JPN,Hiroshima,admin,2045000,1392373695
Sendai,Sendai,38.2871,141.0217,Japan,JP,JPN,Miyagi,admin,2250000,1392457903
Sapporo,Sapporo,43.075,141.34,Japan,JP,JPN,Hokkaidō,admin,2544000,1392000195
Fukuoka,Fukuoka,33.595,130.41,Japan,JP,JPN,Fukuoka,admin,2792000,1392576294
Nagoya,Nagoya,35.155,136.915,Japan,JP,JPN,Aichi,admin,3230000,1392407472
Yokohama,Yokohama,35.32,139.58,Japan,JP,JPN,Kanagawa,admin,3697894,1392118339
Ōsaka,Osaka,34.75,135.4601,Japan,JP,JPN,Ōsaka,admin,11294000,1392419823
Tokyo,Tokyo,35.685,139.7514,Japan,JP,JPN,Tōkyō,primary,35676000,1392685764
Bungoma,Bungoma,0.5704,34.56,Kenya,KE,KEN,Bungoma,admin,55962,1404689847
Embu,Embu,-0.5196,37.45,Kenya,KE,KEN,Embu,admin,58620,1404376456
Kakamega,Kakamega,0.2904,34.73,Kenya,KE,KEN,Kakamega,admin,63426,1404614327
Garissa,Garissa,-0.4396,39.67,Kenya,KE,KEN,Garissa,admin,67861,1404464692
Sotik,Sotik,-0.6796,35.12,Kenya,KE,KEN,Bomet,,71285,1404807525
Kilifi,Kilifi,-3.6096,39.85,Kenya,KE,KEN,Kilifi,admin,80339,1404080121
Kendu Bay,Kendu Bay,-0.3596,34.64,Kenya,KE,KEN,Homa Bay,,91248,1404600696
Malindi,Malindi,-3.21,40.1,Kenya,KE,KEN,Kilifi,,94016,1404380224
Kericho,Kericho,-0.3596,35.28,Kenya,KE,KEN,Kericho,admin,98852,1404338562
Thika,Thika,-1.0396,37.09,Kenya,KE,KEN,Kiambu,,99322,1404482650
Machakos,Machakos,-1.5095,37.26,Kenya,KE,KEN,Machakos,admin,144925,1404746781
Kitale,Kitale,1.0305,34.9899,Kenya,KE,KEN,Trans Nzoia,admin,150495,1404890081
Eldoret,Eldoret,0.52,35.27,Kenya,KE,KEN,Uasin Gishu,admin,353381,1404676289
Nakuru,Nakuru,-0.28,36.07,Kenya,KE,KEN,Nakuru,admin,364727,1404140179
Kisumu,Kisumu,-0.09,34.75,Kenya,KE,KEN,Kisumu,admin,395615,1404511920
Mombasa,Mombasa,-4.04,39.6899,Kenya,KE,KEN,Mombasa,admin,882000,1404512373
Nairobi,Nairobi,-1.2833,36.8167,Kenya,KE,KEN,Nairobi City,primary,3010000,1404000661
Karakol,Karakol,42.492,78.3818,Kyrgyzstan,KG,KGZ,Ysyk-Köl,admin,70171,1417269527
Kara Balta,Kara Balta,42.8306,73.8857,Kyrgyzstan,KG,KGZ,Chüy,minor,74133,1417201811
Tokmak,Tokmak,42.8299,75.2846,Kyrgyzstan,KG,KGZ,Chüy,,112860,1417875875
Jalal Abad,Jalal Abad,40.9429,73.0025,Kyrgyzstan,KG,KGZ,Jalal-Abad,admin,248899,1417653652
Osh,Osh,40.5404,72.79,Kyrgyzstan,KG,KGZ,Osh,admin,391277,1417797596
Bishkek,Bishkek,42.8731,74.5852,Kyrgyzstan,KG,KGZ,Bishkek,primary,837000,1417191971
Prey Veng,Prey Veng,11.484,105.324,Cambodia,KH,KHM,Prey Veng,admin,74000,1116378797
Kompong Chhnang,Kompong Chhnang,12.2505,104.6666,Cambodia,KH,KHM,Kampong Chhnang,admin,75244,1116735270
Kampong Cham,Kampong Cham,12.0004,105.45,Cambodia,KH,KHM,Kampong Cham,admin,83233,1116115849
Siem Reap,Siem Reap,13.3666,103.85,Cambodia,KH,KHM,Siem Reap,admin,109398,1116263015
Battambang,Battambang,13.1,103.2,Cambodia,KH,KHM,Battambang,admin,154773,1116106237
Phnom Penh,Phnom Penh,11.55,104.9166,Cambodia,KH,KHM,Phnom Penh,primary,1466000,1116260534
Moroni,Moroni,-11.7042,43.2402,Comoros,KM,COM,Grande Comore,primary,128698,1174793581
Sonbong,Sonbong,42.3377,130.4027,"Korea, North",KP,PRK,Nasŏn,,60864,1408519732
Pyongsan,Pyongsan,38.3367,126.3866,"Korea, North",KP,PRK,Hwangbuk,,66260,1408433221
Ongjin,Ongjin,37.9371,125.3571,"Korea, North",KP,PRK,Hwangnam,,69195,1408748147
Munchon,Munchon,39.3813,127.2517,"Korea, North",KP,PRK,Kangwŏn,,73619,1408134393
Musan,Musan,42.2304,129.2304,"Korea, North",KP,PRK,Hambuk,,80146,1408588520
Kilchu,Kilchu,40.9604,129.3204,"Korea, North",KP,PRK,Hambuk,,101165,1408662334
Chongju,Chongju,39.6813,125.2163,"Korea, North",KP,PRK,P’yŏngbuk,,141769,1408650871
Sariwon,Sariwon,38.507,125.762,"Korea, North",KP,PRK,Hwangbuk,admin,154942,1408018673
Manpo,Manpo,41.1454,126.2958,"Korea, North",KP,PRK,Chagang,,186827,1408334845
Kimchaek,Kimchaek,40.6723,129.2027,"Korea, North",KP,PRK,Hambuk,minor,187270,1408037150
Haeju,Haeju,38.0394,125.7144,"Korea, North",KP,PRK,Hwangnam,admin,224231,1408348983
Hyeson,Hyeson,41.3927,128.1927,"Korea, North",KP,PRK,Yanggang,admin,227461,1408642146
Sinuiju,Sinuiju,40.0859,124.4213,"Korea, North",KP,PRK,P’yŏngbuk,admin,288112,1408740449
Kanggye,Kanggye,40.9732,126.6032,"Korea, North",KP,PRK,Chagang,admin,299514,1408728939
Wonsan,Wonsan,39.1605,127.4308,"Korea, North",KP,PRK,Kangwŏn,admin,329207,1408692125
Kaesong,Kaesong,37.964,126.5644,"Korea, North",KP,PRK,Hwangnam,minor,338155,1408725697
Sunchon,Sunchon,39.4236,125.939,"Korea, North",KP,PRK,P’yŏngnam,,400629,1408510801
Chongjin,Chongjin,41.7846,129.79,"Korea, North",KP,PRK,Hambuk,admin,672614,1408498177
Hungnam,Hungnam,39.8231,127.6232,"Korea, North",KP,PRK,Hamnam,,751322,1408328889
Hamhung,Hamhung,39.9101,127.5454,"Korea, North",KP,PRK,Hamnam,admin,773000,1408482040
Nampo,Nampo,38.7669,125.4524,"Korea, North",KP,PRK,,admin,1127000,1408892768
Pyongyang,Pyongyang,39.0194,125.7547,"Korea, North",KP,PRK,P’yŏngyang,primary,3300000,1408738594
Sokcho,Sokcho,38.2087,128.5912,"Korea, South",KR,KOR,Gangwon,minor,85430,1410921315
Andong,Andong,36.5659,128.725,"Korea, South",KR,KOR,Gyeongbuk,admin,129319,1410095935
Gyeongju,Gyeongju,35.8428,129.2117,"Korea, South",KR,KOR,Gyeongbuk,,155237,1410173146
Gangneung,Gangneung,37.7559,128.8962,"Korea, South",KR,KOR,Gangwon,minor,180611,1410450550
Chuncheon,Chuncheon,37.8747,127.7342,"Korea, South",KR,KOR,Gangwon,admin,226509,1410231130
Wonju,Wonju,37.3551,127.9396,"Korea, South",KR,KOR,Gangwon,,243387,1410782685
Gunsan,Gunsan,35.9818,126.716,"Korea, South",KR,KOR,Jeonbuk,,244080,1410913202
Mokpo,Mokpo,34.8068,126.3958,"Korea, South",KR,KOR,Jeonnam,minor,268402,1410279439
Iksan,Iksan,35.941,126.9454,"Korea, South",KR,KOR,Jeonbuk,,283501,1410134391
Yeosu,Yeosu,34.7368,127.7458,"Korea, South",KR,KOR,Jeonnam,minor,341994,1410002025
Jeju,Jeju,33.5101,126.5219,"Korea, South",KR,KOR,Jeju,admin,408364,1410364424
Pohang,Pohang,36.0209,129.3715,"Korea, South",KR,KOR,Gyeongbuk,minor,435266,1410983252
Jeonju,Jeonju,35.8314,127.1404,"Korea, South",KR,KOR,Jeonbuk,minor,711424,1410494847
Ansan,Ansan,37.3481,126.8595,"Korea, South",KR,KOR,Gyeonggi,,739493,1410585171
Cheongju,Cheongju,36.6439,127.5012,"Korea, South",KR,KOR,Chungbuk,admin,775096,1410964361
Puch'on,Puch'on,37.4989,126.7831,"Korea, South",KR,KOR,Gyeonggi,minor,866000,1410428222
Goyang,Goyang,37.6527,126.8372,"Korea, South",KR,KOR,Gyeonggi,minor,903000,1410511255
Songnam,Songnam,37.4386,127.1378,"Korea, South",KR,KOR,Gyeonggi,,942000,1410622472
Ulsan,Ulsan,35.5467,129.317,"Korea, South",KR,KOR,Ulsan,admin,1061000,1410134602
Suwon,Suwon,37.2578,127.0109,"Korea, South",KR,KOR,Gyeonggi,admin,1078000,1410679777
Changwon,Changwon,35.2191,128.5836,"Korea, South",KR,KOR,Gyeongnam,admin,1081499,1410592618
Gwangju,Gwangju,35.171,126.9104,"Korea, South",KR,KOR,Gwangju,admin,1440000,1410000087
Daejeon,Daejeon,36.3355,127.425,"Korea, South",KR,KOR,Daejeon,admin,1468000,1410993875
Daegu,Daegu,35.8668,128.607,"Korea, South",KR,KOR,Daegu,admin,2460000,1410095252
Incheon,Incheon,37.4761,126.6422,"Korea, South",KR,KOR,Incheon,admin,2550000,1410160313
Busan,Busan,35.0951,129.01,"Korea, South",KR,KOR,Busan,admin,3480000,1410601465
Seoul,Seoul,37.5663,126.9997,"Korea, South",KR,KOR,Seoul,primary,9796000,1410836482
Al Ahmadi,Al Ahmadi,29.0769,48.0838,Kuwait,KW,KWT,,,68763,1414024487
Al Jahra,Al Jahra,29.3375,47.6581,Kuwait,KW,KWT,,,194193,1414182001
Kuwait,Kuwait,29.3697,47.9783,Kuwait,KW,KWT,,primary,2063000,1414102075
Arqalyq,Arqalyq,50.2418,66.8976,Kazakhstan,KZ,KAZ,Qostanay,,55521,1398980293
Ridder,Ridder,50.3554,83.5149,Kazakhstan,KZ,KAZ,Shyghys Qazaqstan,,56756,1398556139
Kentau,Kentau,43.5165,68.5199,Kazakhstan,KZ,KAZ,Ongtüstik Qazaqstan,,57408,1398997742
Sarqan,Sarqan,45.4203,79.9149,Kazakhstan,KZ,KAZ,Almaty,,76919,1398159801
Balqash,Balqash,46.8532,74.9502,Kazakhstan,KZ,KAZ,Qaraghandy,,81364,1398134106
Taldyqorghan,Taldyqorghan,45,78.4,Kazakhstan,KZ,KAZ,Almaty,admin,88380,1398112507
Turkistan,Turkistan,43.3016,68.2549,Kazakhstan,KZ,KAZ,Ongtüstik Qazaqstan,admin,97360,1398398278
Zhezqazghan,Zhezqazghan,47.78,67.77,Kazakhstan,KZ,KAZ,Qaraghandy,,104357,1398121545
Rudny,Rudny,52.9527,63.13,Kazakhstan,KZ,KAZ,Qostanay,,124000,1398701954
Ekibastuz,Ekibastuz,51.73,75.3199,Kazakhstan,KZ,KAZ,Pavlodar,,127868,1398583266
Kokshetau,Kokshetau,53.3,69.42,Kazakhstan,KZ,KAZ,Aqmola,admin,128873,1398375387
Mangyshlak,Mangyshlak,43.6905,51.1417,Kazakhstan,KZ,KAZ,Mangghystaū,,147443,1398790140
Temirtau,Temirtau,50.065,72.965,Kazakhstan,KZ,KAZ,Qaraghandy,,170600,1398081646
Atyrau,Atyrau,47.1127,51.92,Kazakhstan,KZ,KAZ,Atyraū,admin,182753,1398169063
Oral,Oral,51.2711,51.335,Kazakhstan,KZ,KAZ,Batys Qazaqstan,admin,209788,1398593972
Petropavlovsk,Petropavlovsk,54.88,69.22,Kazakhstan,KZ,KAZ,Soltüstik Qazaqstan,admin,228238,1398252858
Oostanay,Oostanay,53.2209,63.6283,Kazakhstan,KZ,KAZ,Qostanay,admin,236901,1398455461
Aqtobe,Aqtobe,50.28,57.17,Kazakhstan,KZ,KAZ,Aqtöbe,admin,262457,1398602716
Qyzylorda,Qyzylorda,44.8,65.465,Kazakhstan,KZ,KAZ,Qyzylorda,admin,300000,1398248334
Semey,Semey,50.435,80.275,Kazakhstan,KZ,KAZ,Shyghys Qazaqstan,,311353,1398405657
Oskemen,Oskemen,49.99,82.6149,Kazakhstan,KZ,KAZ,Shyghys Qazaqstan,admin,319067,1398371414
Pavlodar,Pavlodar,52.3,76.95,Kazakhstan,KZ,KAZ,Pavlodar,admin,329002,1398790087
Astana,Astana,51.1811,71.4278,Kazakhstan,KZ,KAZ,Astana,primary,345604,1398516045
Taraz,Taraz,42.9,71.365,Kazakhstan,KZ,KAZ,Zhambyl,admin,358153,1398626276
Qaraghandy,Qaraghandy,49.885,73.115,Kazakhstan,KZ,KAZ,Qaraghandy,admin,451800,1398274508
Shymkent,Shymkent,42.32,69.595,Kazakhstan,KZ,KAZ,,admin,465392,1398791401
Almaty,Almaty,43.325,76.915,Kazakhstan,KZ,KAZ,Almaty,admin,1209000,1398351701
Thakhek,Thakhek,17.4112,104.8361,Laos,LA,LAO,Khammouan,admin,76928,1418367677
Savannakhet,Savannakhet,16.5376,104.773,Laos,LA,LAO,Savannakhét,admin,84898,1418179232
Pakxe,Pakxe,15.1221,105.8183,Laos,LA,LAO,Champasak,admin,102775,1418863956
Louangphrabang,Louangphrabang,19.8845,102.1416,Laos,LA,LAO,Louangphabang,admin,107142,1418530759
Vientiane,Vientiane,17.9667,102.6,Laos,LA,LAO,Viangchan,primary,754000,1418732714
Zahlé,Zahle,33.8501,35.9042,Lebanon,LB,LBN,Béqaa,admin,78145,1422031285
Nabatiye et Tahta,Nabatiye et Tahta,33.3833,35.45,Lebanon,LB,LBN,Nabatîyé,admin,80000,1422269278
Saida,Saida,33.563,35.3688,Lebanon,LB,LBN,Liban-Sud,admin,173894,1422897920
Trablous,Trablous,34.42,35.87,Lebanon,LB,LBN,Liban-Nord,admin,530000,1422886065
Beirut,Beirut,33.872,35.5097,Lebanon,LB,LBN,Beyrouth,primary,1846000,1422847713
Matara,Matara,5.949,80.5428,Sri Lanka,LK,LKA,Southern,,68244,1144127163
Galle,Galle,6.03,80.24,Sri Lanka,LK,LKA,Southern,,99478,1144191486
Kilinochchi,Kilinochchi,9.4004,80.3999,Sri Lanka,LK,LKA,Northern,,103717,1144468936
Trincomalee,Trincomalee,8.569,81.233,Sri Lanka,LK,LKA,Eastern,,108420,1144417074
Kandy,Kandy,7.28,80.67,Sri Lanka,LK,LKA,Central,,111701,1144308408
Sri Jawewardenepura Kotte,Sri Jawewardenepura Kotte,6.9,79.95,Sri Lanka,LK,LKA,Western,primary,115826,1144239330
Anuradhapura,Anuradhapura,8.35,80.3833,Sri Lanka,LK,LKA,North Central,,118302,1144764835
Batticaloa,Batticaloa,7.717,81.7,Sri Lanka,LK,LKA,Eastern,,129222,1144464659
Moratuwa,Moratuwa,6.7804,79.88,Sri Lanka,LK,LKA,Western,,200000,1144324309
Colombo,Colombo,6.932,79.8578,Sri Lanka,LK,LKA,Western,primary,217000,1144251314
Jaffna,Jaffna,9.675,80.005,Sri Lanka,LK,LKA,Northern,,250000,1144005506
Monrovia,Monrovia,6.3106,-10.8048,Liberia,LR,LBR,Montserrado,primary,1041000,1430477826
Mafetang,Mafetang,-29.8166,27.25,Lesotho,LS,LSO,Mafeteng,admin,57059,1426506047
Maseru,Maseru,-29.3167,27.4833,Lesotho,LS,LSO,Maseru,primary,361324,1426977668
Panevežys,Panevezys,55.74,24.37,Lithuania,LT,LTU,Panevėžio Miestas,admin,127405,1440120065
Šiauliai,Siauliai,55.9386,23.325,Lithuania,LT,LTU,Šiaulių Miestas,admin,133528,1440593416
Klaipėda,Klaipeda,55.7204,21.1199,Lithuania,LT,LTU,Klaipėdos Miestas,admin,192307,1440897790
Kaunas,Kaunas,54.9504,23.88,Lithuania,LT,LTU,Kauno Miestas,admin,374643,1440302852
Vilnius,Vilnius,54.6834,25.3166,Lithuania,LT,LTU,Vilniaus Miestas,primary,542366,1440887149
Luxembourg,Luxembourg,49.6117,6.13,Luxembourg,LU,LUX,Luxembourg,primary,107260,1442262731
Jelgava,Jelgava,56.6527,23.7128,Latvia,LV,LVA,Jelgavas Novads,admin,67207,1428370571
Liepaga,Liepaga,56.51,21.01,Latvia,LV,LVA,Liepāja,admin,85132,1428511842
Daugavpils,Daugavpils,55.88,26.51,Latvia,LV,LVA,Daugavpils Novads,admin,111564,1428924928
Riga,Riga,56.95,24.1,Latvia,LV,LVA,Rīga,primary,742572,1428586192
Marzuq,Marzuq,25.9044,13.8972,Libya,LY,LBY,Murzuq,admin,55071,1434910333
Bani Walid,Bani Walid,31.7704,13.99,Libya,LY,LBY,Mişrātah,,65392,1434398590
Nalut,Nalut,31.8804,10.97,Libya,LY,LBY,Nālūt,admin,66609,1434550258
Sabha,Sabha,27.0333,14.4333,Libya,LY,LBY,Sabhā,admin,100249,1434044820
Darnah,Darnah,32.7648,22.6391,Libya,LY,LBY,Darnah,admin,127974,1434920152
Surt,Surt,31.21,16.59,Libya,LY,LBY,Surt,admin,128123,1434563640
Ajdabiya,Ajdabiya,30.77,20.22,Libya,LY,LBY,Al Wāḩāt,admin,143833,1434401280
Gharyan,Gharyan,32.1704,13.02,Libya,LY,LBY,Al Jabal al Gharbī,admin,146810,1434507846
Al Marj,Al Marj,32.5005,20.83,Libya,LY,LBY,Al Marj,admin,169540,1434742923
Zuwarah,Zuwarah,32.9344,12.0791,Libya,LY,LBY,An Nuqāţ al Khams,admin,180310,1434206265
Az Zawiyah,Az Zawiyah,32.7604,12.72,Libya,LY,LBY,Az Zāwiyah,admin,200000,1434421178
Al Khums,Al Khums,32.6604,14.26,Libya,LY,LBY,Al Marqab,admin,201943,1434348717
Tubruq,Tubruq,32.08,23.96,Libya,LY,LBY,Al Buţnān,admin,263527,1434068493
Misratah,Misratah,32.38,15.1,Libya,LY,LBY,Mişrātah,admin,386120,1434518407
Banghazi,Banghazi,32.1167,20.0667,Libya,LY,LBY,Banghāzī,admin,1180000,1434915572
Tripoli,Tripoli,32.8925,13.18,Libya,LY,LBY,Ţarābulus,primary,2189000,1434201852
Tiznit,Tiznit,29.7104,-9.74,Morocco,MA,MAR,Souss-Massa,,57705,1504399838
Tan Tan,Tan Tan,28.4304,-11.1,Morocco,MA,MAR,Guelmim-Oued Noun,,64868,1504164174
Ouezzane,Ouezzane,34.8103,-5.57,Morocco,MA,MAR,Tanger-Tétouan-Al Hoceïma,,69658,1504736892
Goulimine,Goulimine,28.98,-10.07,Morocco,MA,MAR,Guelmim-Oued Noun,admin,115267,1504110861
Larache,Larache,35.2004,-6.16,Morocco,MA,MAR,Tanger-Tétouan-Al Hoceïma,,120082,1504637172
Settat,Settat,33.0104,-7.62,Morocco,MA,MAR,Casablanca-Settat,,161748,1504720478
El Jadida,El Jadida,33.2604,-8.51,Morocco,MA,MAR,Casablanca-Settat,,180470,1504964063
Taza,Taza,34.2204,-4.02,Morocco,MA,MAR,Fès-Meknès,,199633,1504405154
Er Rachidia,Er Rachidia,31.9404,-4.45,Morocco,MA,MAR,Drâa-Tafilalet,,228489,1504005759
Ksar El Kebir,Ksar El Kebir,35.0204,-5.91,Morocco,MA,MAR,Tanger-Tétouan-Al Hoceïma,,306600,1504230428
Safi,Safi,32.32,-9.24,Morocco,MA,MAR,Marrakech-Safi,,353476,1504000717
Oujda,Oujda,34.69,-1.91,Morocco,MA,MAR,Oriental,admin,409391,1504891036
Kenitra,Kenitra,34.2704,-6.58,Morocco,MA,MAR,Rabat-Salé-Kénitra,,551786,1504534876
Meknes,Meknes,33.9004,-5.56,Morocco,MA,MAR,Fès-Meknès,,697628,1504333193
Tangier,Tangier,35.7473,-5.8327,Morocco,MA,MAR,Tanger-Tétouan-Al Hoceïma,admin,750060,1504861504
Agadir,Agadir,30.44,-9.62,Morocco,MA,MAR,Souss-Massa,admin,825467,1504116858
Marrakesh,Marrakesh,31.63,-8,Morocco,MA,MAR,Marrakech-Safi,admin,872000,1504172585
Fez,Fez,34.0546,-5.0004,Morocco,MA,MAR,Fès-Meknès,admin,1002000,1504861997
Rabat,Rabat,34.0253,-6.8361,Morocco,MA,MAR,Rabat-Salé-Kénitra,primary,1705000,1504023252
Casablanca,Casablanca,33.6,-7.6164,Morocco,MA,MAR,Casablanca-Settat,admin,3181000,1504175315
Cahul,Cahul,45.9079,28.1944,Moldova,MD,MDA,Cahul,admin,63407,1498020356
Bălți,Balti,47.7591,27.9053,Moldova,MD,MDA,Bălţi,admin,151355,1498172131
Tiraspol,Tiraspol,46.8531,29.64,Moldova,MD,MDA,Stînga Nistrului,admin,157000,1498104958
Chișinău,Chisinau,47.005,28.8577,Moldova,MD,MDA,Chişinău,primary,688134,1498011437
Podgorica,Podgorica,42.466,19.2663,Montenegro,ME,MNE,Podgorica,primary,145850,1499454516
Antsiranana,Antsiranana,-12.2765,49.3115,Madagascar,MG,MDG,Antsiranana,admin,82937,1450106928
Toliara,Toliara,-23.3568,43.69,Madagascar,MG,MDG,Toliara,admin,115319,1450593748
Mahajanga,Mahajanga,-15.67,46.345,Madagascar,MG,MDG,Mahajanga,admin,154657,1450421961
Fianarantsoa,Fianarantsoa,-21.4333,47.0833,Madagascar,MG,MDG,Fianarantsoa,admin,184184,1450070223
Toamasina,Toamasina,-18.1818,49.405,Madagascar,MG,MDG,Toamasina,admin,210226,1450540529
Antsirabe,Antsirabe,-19.85,47.0333,Madagascar,MG,MDG,Antananarivo,minor,307921,1450791699
Antananarivo,Antananarivo,-18.9166,47.5166,Madagascar,MG,MDG,Antananarivo,primary,1697000,1450978461
Bitola,Bitola,41.0391,21.3395,Macedonia,MK,MKD,Bitola,admin,86528,1807488567
Tetovo,Tetovo,42.0092,20.9701,Macedonia,MK,MKD,Tetovo,admin,119132,1807020286
Skopje,Skopje,42,21.4335,Macedonia,MK,MKD,,primary,494087,1807600615
Markala,Markala,13.6704,-6.07,Mali,ML,MLI,Ségou,,53738,1466526342
Kati,Kati,12.7504,-8.08,Mali,ML,MLI,Koulikoro,minor,66895,1466006801
Timbuktu,Timbuktu,16.7666,-3.0166,Mali,ML,MLI,Tombouctou,admin,68872,1466595315
Kayes,Kayes,14.45,-11.44,Mali,ML,MLI,Kayes,admin,77207,1466546429
Koutiala,Koutiala,12.3904,-5.47,Mali,ML,MLI,Sikasso,minor,104927,1466253368
Mopti,Mopti,14.49,-4.18,Mali,ML,MLI,Mopti,admin,108456,1466352252
Gao,Gao,16.2666,-0.05,Mali,ML,MLI,Gao,admin,116967,1466571211
Ségou,Segou,13.44,-6.26,Mali,ML,MLI,Ségou,admin,122952,1466684950
Sikasso,Sikasso,11.3204,-5.68,Mali,ML,MLI,Sikasso,admin,225753,1466666150
Bamako,Bamako,12.65,-8,Mali,ML,MLI,Bamako,primary,1494000,1466965925
Thongwa,Thongwa,16.7547,96.5193,Burma,MM,MMR,Yangon,,52496,1104339441
Allanmyo,Allanmyo,19.3783,95.2279,Burma,MM,MMR,Magway,,57897,1104582279
Phyarpon,Phyarpon,16.2933,95.6829,Burma,MM,MMR,Ayeyawady,,65601,1104170402
Sagaing,Sagaing,21.88,95.962,Burma,MM,MMR,Sagaing,admin,78739,1104151403
Shwebo,Shwebo,22.5783,95.6929,Burma,MM,MMR,Sagaing,,88914,1104118052
Chauk,Chauk,20.9085,94.823,Burma,MM,MMR,Magway,,90870,1104898616
Taungoo,Taungoo,18.9483,96.4179,Burma,MM,MMR,Bago,,106945,1104269989
Yaynangyoung,Yaynangyoung,20.4615,94.881,Burma,MM,MMR,Magway,,110553,1104118838
Magway,Magway,20.1445,94.9196,Burma,MM,MMR,Magway,admin,125973,1104246517
Pakokku,Pakokku,21.332,95.0866,Burma,MM,MMR,Magway,,126938,1104161315
Pyay,Pyay,18.8165,95.2114,Burma,MM,MMR,Bago,,135308,1104978348
Myitkyina,Myitkyina,25.3596,97.3928,Burma,MM,MMR,Kachin State,admin,139100,1104327329
Dawei,Dawei,14.098,98.195,Burma,MM,MMR,Taninthayi,admin,146212,1104373474
Mudon,Mudon,16.2618,97.7215,Burma,MM,MMR,Mon State,,152300,1104174785
Taunggyi,Taunggyi,20.782,97.038,Burma,MM,MMR,Shan State,admin,160115,1104364374
Myingyan,Myingyan,21.4618,95.3914,Burma,MM,MMR,Mandalay,,163812,1104162015
Letpadan,Letpadan,17.7819,95.7415,Burma,MM,MMR,Bago,,176571,1104882792
Sittwe,Sittwe,20.14,92.88,Burma,MM,MMR,Rakhine State,admin,179032,1104269305
Hinthada,Hinthada,17.6483,95.4679,Burma,MM,MMR,Ayeyawady,,180728,1104524588
Monywa,Monywa,22.105,95.15,Burma,MM,MMR,Sagaing,,226222,1104777345
Pathein,Pathein,16.7704,94.75,Burma,MM,MMR,Ayeyawady,admin,237089,1104832430
Myeik,Myeik,12.4541,98.6115,Burma,MM,MMR,Taninthayi,,266720,1104715655
Bago,Bago,17.32,96.515,Burma,MM,MMR,Bago,admin,284318,1104027443
Mawlamyine,Mawlamyine,16.5004,97.67,Burma,MM,MMR,Mon State,admin,438861,1104530702
Naypyidaw,Naypyidaw,19.7666,96.1186,Burma,MM,MMR,Nay Pyi Taw,primary,930000,1104838105
Mandalay,Mandalay,21.97,96.085,Burma,MM,MMR,Mandalay,admin,1300000,1104468217
Rangoon,Rangoon,16.7834,96.1667,Burma,MM,MMR,Yangon,primary,4088000,1104616656
Darhan,Darhan,49.6167,106.35,Mongolia,MN,MNG,Selenge,,74738,1496510995
Erdenet,Erdenet,49.0533,104.1183,Mongolia,MN,MNG,Orhon,admin,79647,1496374417
Ulaanbaatar,Ulaanbaatar,47.9167,106.9166,Mongolia,MN,MNG,Ulaanbaatar,primary,885000,1496024767
Macau,Macau,22.203,113.545,Macau,MO,MAC,,,568700,1446227359
Fort-de-France,Fort-de-France,14.6104,-61.08,Martinique,MQ,MTQ,,admin,253995,1474969110
Zouirat,Zouirat,22.7304,-12.4833,Mauritania,MR,MRT,Tiris Zemmour,admin,56345,1478799785
Kiffa,Kiffa,16.62,-11.4,Mauritania,MR,MRT,Assaba,admin,73930,1478465771
Nouadhibou,Nouadhibou,20.9,-17.056,Mauritania,MR,MRT,Dakhlet Nouadhibou,admin,86738,1478176283
Nema,Nema,16.6171,-7.25,Mauritania,MR,MRT,Hodh ech Chargui,admin,200000,1478009046
Nouakchott,Nouakchott,18.0864,-15.9753,Mauritania,MR,MRT,,primary,742144,1478414984
Valletta,Valletta,35.8997,14.5147,Malta,MT,MLT,Valletta,primary,368250,1470574399
Curepipe,Curepipe,-20.3162,57.5166,Mauritius,MU,MUS,Plaines Wilhems,,299975,1480343099
Port Louis,Port Louis,-20.1666,57.5,Mauritius,MU,MUS,Port Louis,primary,595491,1480131261
Malé,Male,4.1667,73.4999,Maldives,MV,MDV,Maale,primary,112927,1462441685
Nkhotakota,Nkhotakota,-12.9163,34.3,Malawi,MW,MWI,Nkhotakota,admin,59854,1454281420
Salima,Salima,-13.7829,34.4333,Malawi,MW,MWI,Salima,admin,71181,1454747771
Zomba,Zomba,-15.39,35.31,Malawi,MW,MWI,Zomba,admin,80932,1454072947
Mangochi,Mangochi,-14.4596,35.27,Malawi,MW,MWI,Mangochi,admin,97711,1454766726
Mzuzu,Mzuzu,-11.46,34.02,Malawi,MW,MWI,,,110201,1454525586
Blantyre,Blantyre,-15.79,34.9899,Malawi,MW,MWI,Blantyre,admin,584877,1454145012
Lilongwe,Lilongwe,-13.9833,33.7833,Malawi,MW,MWI,Lilongwe,primary,646750,1454688499
Taxco,Taxco,18.5704,-99.62,Mexico,MX,MEX,Guerrero,minor,53217,1484987082
San Pedro de las Colonias,San Pedro de las Colonias,25.7592,-102.9827,Mexico,MX,MEX,Coahuila de Zaragoza,minor,53688,1484673086
Nuevo Casas Grandes,Nuevo Casas Grandes,30.4185,-107.9119,Mexico,MX,MEX,Chihuahua,minor,54826,1484004002
Caborca,Caborca,30.7161,-112.1642,Mexico,MX,MEX,Sonora,minor,57357,1484993432
Linares,Linares,24.8604,-99.57,Mexico,MX,MEX,Nuevo León,minor,57731,1484504671
Guamúchil,Guamuchil,25.4704,-108.09,Mexico,MX,MEX,Sinaloa,minor,62695,1484709566
Ciudad Hidalgo,Ciudad Hidalgo,19.68,-100.57,Mexico,MX,MEX,Michoacán de Ocampo,minor,64154,1484580926
Jaltipan,Jaltipan,17.94,-94.74,Mexico,MX,MEX,Veracruz,minor,66998,1484054405
Juchitan,Juchitan,16.43,-95.02,Mexico,MX,MEX,Oaxaca,minor,67637,1484386317
Matehuala,Matehuala,23.6604,-100.65,Mexico,MX,MEX,San Luis Potosí,minor,67717,1484682498
Rio Verde,Rio Verde,21.93,-99.98,Mexico,MX,MEX,San Luis Potosí,minor,69613,1484341437
Tamazunchale,Tamazunchale,21.2704,-98.78,Mexico,MX,MEX,San Luis Potosí,minor,72685,1484802864
Cozumel,Cozumel,20.51,-86.95,Mexico,MX,MEX,Quintana Roo,minor,73934,1484935305
Ciudad Mante,Ciudad Mante,22.7334,-98.95,Mexico,MX,MEX,Tamaulipas,minor,79981,1484536173
Salina Cruz,Salina Cruz,16.1671,-95.2,Mexico,MX,MEX,Oaxaca,,81063,1484364230
Agua Prieta,Agua Prieta,31.3223,-109.563,Mexico,MX,MEX,Sonora,minor,86083,1484381848
Cuauhtémoc,Cuauhtemoc,28.4257,-106.8696,Mexico,MX,MEX,Chihuahua,minor,90835,1484365643
Tecoman,Tecoman,18.9204,-103.88,Mexico,MX,MEX,Colima,minor,91321,1484348795
Ciudad Guzman,Ciudad Guzman,19.7104,-103.46,Mexico,MX,MEX,Jalisco,minor,92161,1484316056
Lagos de Moreno,Lagos de Moreno,21.3704,-101.93,Mexico,MX,MEX,Jalisco,minor,94127,1484759605
Guasave,Guasave,25.5705,-108.47,Mexico,MX,MEX,Sinaloa,minor,96860,1484450749
Atlixco,Atlixco,18.9,-98.45,Mexico,MX,MEX,Puebla,minor,97842,1484268457
Apatzingán,Apatzingan,19.08,-102.35,Mexico,MX,MEX,Michoacán de Ocampo,,98422,1484693242
Hidalgo del Parral,Hidalgo del Parral,26.9334,-105.6666,Mexico,MX,MEX,Chihuahua,minor,103378,1484607603
Guaymas,Guaymas,27.93,-110.89,Mexico,MX,MEX,Sonora,minor,103449,1484689704
Fresnillo,Fresnillo,23.1704,-102.86,Mexico,MX,MEX,Zacatecas,minor,105488,1484014035
Escuintla,Escuintla,15.33,-92.63,Mexico,MX,MEX,Chiapas,minor,107638,1484508510
Tuxpam,Tuxpam,20.9604,-97.41,Mexico,MX,MEX,Veracruz,minor,109049,1484316468
Manzanillo,Manzanillo,19.0496,-104.3231,Mexico,MX,MEX,Colima,minor,110735,1484223913
Iguala,Iguala,18.37,-99.54,Mexico,MX,MEX,Guerrero,minor,112106,1484280781
Guanajuato,Guanajuato,21.0204,-101.28,Mexico,MX,MEX,Guanajuato,admin,112200,1484185068
Delicias,Delicias,28.2,-105.5,Mexico,MX,MEX,Chihuahua,,114783,1484513329
Ciudad Valles,Ciudad Valles,21.98,-99.02,Mexico,MX,MEX,San Luis Potosí,minor,114964,1484904610
Navajoa,Navajoa,27.0819,-109.4546,Mexico,MX,MEX,Sonora,minor,116093,1484166303
Piedras Negras,Piedras Negras,28.7076,-100.5317,Mexico,MX,MEX,Coahuila de Zaragoza,minor,139619,1484000400
San Juan del Río,San Juan del Rio,20.38,-100,Mexico,MX,MEX,Querétaro,minor,147559,1484890205
Chetumal,Chetumal,18.5,-88.3,Mexico,MX,MEX,Quintana Roo,admin,154517,1484338031
Ciudad del Carmen,Ciudad del Carmen,18.6537,-91.8245,Mexico,MX,MEX,Campeche,minor,156195,1484192447
Lázaro Cárdenas,Lazaro Cardenas,17.9587,-102.2,Mexico,MX,MEX,Michoacán de Ocampo,,160087,1484804575
Teziutlán,Teziutlan,19.8204,-97.36,Mexico,MX,MEX,Puebla,,177796,1484709570
Nogales,Nogales,31.305,-110.945,Mexico,MX,MEX,Sonora,minor,178097,1484364591
Chilpancingo,Chilpancingo,17.55,-99.5,Mexico,MX,MEX,Guerrero,admin,182387,1484290575
San Cristobal de Las Casas,San Cristobal de Las Casas,16.75,-92.6334,Mexico,MX,MEX,Chiapas,minor,186661,1484451215
Puerto Vallarta,Puerto Vallarta,20.6771,-105.245,Mexico,MX,MEX,Jalisco,minor,187134,1484408906
La Paz,La Paz,24.14,-110.32,Mexico,MX,MEX,Baja California Sur,admin,189767,1484005187
Ciudad Madero,Ciudad Madero,22.3189,-97.8361,Mexico,MX,MEX,Tamaulipas,minor,192736,1484185237
Salamanca,Salamanca,20.5704,-101.2,Mexico,MX,MEX,Guanajuato,minor,197524,1484741627
Minatitlán,Minatitlan,17.9805,-94.53,Mexico,MX,MEX,Veracruz,minor,201902,1484735713
Campeche,Campeche,19.83,-90.5,Mexico,MX,MEX,Campeche,admin,205212,1484431512
Zamora,Zamora,19.9804,-102.28,Mexico,MX,MEX,Michoacán de Ocampo,,214947,1484229977
Córdoba,Cordoba,18.9204,-96.92,Mexico,MX,MEX,Veracruz,minor,220563,1484179679
Tapachula,Tapachula,14.9,-92.27,Mexico,MX,MEX,Chiapas,minor,221521,1484997178
Colima,Colima,19.23,-103.72,Mexico,MX,MEX,Colima,admin,223287,1484585697
Zacatecas,Zacatecas,22.7704,-102.58,Mexico,MX,MEX,Zacatecas,admin,234481,1484118312
Monclova,Monclova,26.9,-101.42,Mexico,MX,MEX,Coahuila de Zaragoza,minor,236244,1484281759
Tehuacan,Tehuacan,18.4504,-97.38,Mexico,MX,MEX,Puebla,minor,241429,1484817336
Los Mochis,Los Mochis,25.79,-109,Mexico,MX,MEX,Sinaloa,minor,249047,1484443585
Zumpango,Zumpango,19.8104,-99.11,Mexico,MX,MEX,México,minor,250000,1484625824
Poza Rica de Hidalgo,Poza Rica de Hidalgo,20.5504,-97.47,Mexico,MX,MEX,Veracruz,minor,254481,1484808798
Ensenada,Ensenada,31.87,-116.62,Mexico,MX,MEX,Baja California,minor,256565,1484714297
Uruapan,Uruapan,19.4204,-102.07,Mexico,MX,MEX,Michoacán de Ocampo,minor,264531,1484051478
Ciudad Victoria,Ciudad Victoria,23.72,-99.13,Mexico,MX,MEX,Tamaulipas,admin,274900,1484616519
Coatzacoalcos,Coatzacoalcos,18.1204,-94.42,Mexico,MX,MEX,Veracruz,minor,287285,1484016854
Ciudad Obregon,Ciudad Obregon,27.4666,-109.925,Mexico,MX,MEX,Sonora,minor,288002,1484887986
Tepic,Tepic,21.5054,-104.88,Mexico,MX,MEX,Nayarit,admin,318781,1484433877
Pachuca,Pachuca,20.1704,-98.73,Mexico,MX,MEX,Hidalgo,admin,319581,1484575026
Irapuato,Irapuato,20.67,-101.5,Mexico,MX,MEX,Guanajuato,minor,339554,1484625454
Nuevo Laredo,Nuevo Laredo,27.5,-99.55,Mexico,MX,MEX,Tamaulipas,minor,349550,1484597234
Orizaba,Orizaba,18.85,-97.13,Mexico,MX,MEX,Veracruz,minor,355333,1484766767
Mazatlán,Mazatlan,23.2211,-106.42,Mexico,MX,MEX,Sinaloa,minor,368204,1484841466
Celaya,Celaya,20.53,-100.8,Mexico,MX,MEX,Guanajuato,minor,383697,1484979555
Gómez Palacio,Gomez Palacio,25.5701,-103.5,Mexico,MX,MEX,Durango,minor,399328,1484092318
Villahermosa,Villahermosa,18,-92.9,Mexico,MX,MEX,Tabasco,admin,428564,1484460894
Xalapa,Xalapa,19.53,-96.92,Mexico,MX,MEX,Veracruz,admin,452186,1484334948
Durango,Durango,24.0311,-104.67,Mexico,MX,MEX,Durango,admin,457140,1484854616
Tuxtla Gutiérrez,Tuxtla Gutierrez,16.75,-93.15,Mexico,MX,MEX,Chiapas,admin,481128,1484832519
Reynosa,Reynosa,26.08,-98.3,Mexico,MX,MEX,Tamaulipas,minor,498654,1484737671
Mazatlán,Mazatlan,29.0171,-110.1333,Mexico,MX,MEX,Sonora,minor,500000,1484350756
Tlaxcala,Tlaxcala,19.32,-98.23,Mexico,MX,MEX,Tlaxcala,admin,503878,1484359502
Oaxaca,Oaxaca,17.0827,-96.6699,Mexico,MX,MEX,Oaxaca,admin,530728,1484301467
Matamoros,Matamoros,25.88,-97.5,Mexico,MX,MEX,Tamaulipas,minor,538785,1484614906
Cancún,Cancun,21.17,-86.83,Mexico,MX,MEX,Quintana Roo,minor,542043,1484010310
Veracruz,Veracruz,19.1773,-96.16,Mexico,MX,MEX,Veracruz,minor,578963,1484992153
Hermosillo,Hermosillo,29.0989,-110.9541,Mexico,MX,MEX,Sonora,admin,595811,1484015319
Morelia,Morelia,19.7334,-101.1895,Mexico,MX,MEX,Michoacán de Ocampo,,644306,1484669072
Acapulco,Acapulco,16.85,-99.916,Mexico,MX,MEX,Guerrero,minor,715584,1484463183
Saltillo,Saltillo,25.42,-101.005,Mexico,MX,MEX,Coahuila de Zaragoza,admin,754000,1484107245
Chihuahua,Chihuahua,28.645,-106.085,Mexico,MX,MEX,Chihuahua,admin,793000,1484335603
Culiacán,Culiacan,24.83,-107.38,Mexico,MX,MEX,Sinaloa,admin,809000,1484516810
Cuernavaca,Cuernavaca,18.9211,-99.24,Mexico,MX,MEX,Morelos,admin,834001,1484926471
Tampico,Tampico,22.3,-97.87,Mexico,MX,MEX,Tamaulipas,minor,859419,1484060031
Aguascalientes,Aguascalientes,21.8795,-102.2904,Mexico,MX,MEX,Aguascalientes,admin,869000,1484666646
Mexicali,Mexicali,32.65,-115.48,Mexico,MX,MEX,Baja California,admin,885000,1484788702
Querétaro,Queretaro,20.63,-100.38,Mexico,MX,MEX,Querétaro,admin,961000,1484604775
Mérida,Merida,20.9666,-89.6166,Mexico,MX,MEX,Yucatán,admin,965000,1484396779
San Luis Potosí,San Luis Potosi,22.17,-101,Mexico,MX,MEX,San Luis Potosí,admin,992000,1484583620
Nezahualcoyotl,Nezahualcoyotl,19.41,-99.03,Mexico,MX,MEX,México,,1109363,1484016661
Torreón,Torreon,25.5701,-103.42,Mexico,MX,MEX,Coahuila de Zaragoza,minor,1144000,1484215762
Ciudad Juárez,Ciudad Juarez,31.6904,-106.49,Mexico,MX,MEX,Chihuahua,minor,1343000,1484840083
León,Leon,21.15,-101.7,Mexico,MX,MEX,Guanajuato,minor,1488000,1484811199
Toluca,Toluca,19.3304,-99.67,Mexico,MX,MEX,México,admin,1531000,1484124846
Tijuana,Tijuana,32.5,-117.08,Mexico,MX,MEX,Baja California,minor,1553000,1484708778
Puebla,Puebla,19.05,-98.2,Mexico,MX,MEX,Puebla,admin,2195000,1484416394
Monterrey,Monterrey,25.67,-100.33,Mexico,MX,MEX,Nuevo León,admin,3712000,1484559591
Guadalajara,Guadalajara,20.67,-103.33,Mexico,MX,MEX,Jalisco,admin,4198000,1484950208
Mexico City,Mexico City,19.4424,-99.131,Mexico,MX,MEX,Ciudad de México,primary,19028000,1484247881
Kangar,Kangar,6.433,100.19,Malaysia,MY,MYS,Perlis,admin,63869,1458939333
Putrajaya,Putrajaya,2.914,101.7019,Malaysia,MY,MYS,Negeri Sembilan,,67964,1458754832
Chukai,Chukai,4.2332,103.4479,Malaysia,MY,MYS,Terengganu,,82425,1458033606
Teluk Intan,Teluk Intan,4.0119,101.0314,Malaysia,MY,MYS,Perak,,101659,1458126062
Lahad Datu,Lahad Datu,5.0464,118.336,Malaysia,MY,MYS,Sabah,,105622,1458472057
Bintulu,Bintulu,3.1664,113.036,Malaysia,MY,MYS,Sarawak,,151617,1458164361
Keluang,Keluang,2.0383,103.3179,Malaysia,MY,MYS,Johor,,169828,1458692921
Muar,Muar,2.0337,102.5666,Malaysia,MY,MYS,Johor,,191346,1458170112
Batu Pahat,Batu Pahat,1.8504,102.9333,Malaysia,MY,MYS,Johor,,199619,1458310769
Sibu,Sibu,2.303,111.843,Malaysia,MY,MYS,Sarawak,,203832,1458970454
Miri,Miri,4.3999,113.9845,Malaysia,MY,MYS,Sarawak,,228212,1458079883
Taiping,Taiping,4.865,100.72,Malaysia,MY,MYS,Perak,,237095,1458446120
Tawau,Tawau,4.271,117.896,Malaysia,MY,MYS,Sabah,,306462,1458745722
Alor Setar,Alor Setar,6.1133,100.3729,Malaysia,MY,MYS,Kedah,admin,336475,1458273978
Kuala Terengganu,Kuala Terengganu,5.3304,103.12,Malaysia,MY,MYS,Terengganu,admin,350210,1458475563
Sungai Petani,Sungai Petani,5.6497,100.4793,Malaysia,MY,MYS,Kedah,,358499,1458639918
Kuantan,Kuantan,3.83,103.32,Malaysia,MY,MYS,Pahang,admin,366229,1458763489
Seremban,Seremban,2.7105,101.94,Malaysia,MY,MYS,Negeri Sembilan,admin,372917,1458051507
Sandakan,Sandakan,5.843,118.108,Malaysia,MY,MYS,Sabah,,392288,1458405180
Shah Alam,Shah Alam,3.0667,101.55,Malaysia,MY,MYS,,,481654,1458194263
Kota Baharu,Kota Baharu,6.12,102.23,Malaysia,MY,MYS,Kelantan,minor,505583,1458150101
Kota Kinabalu,Kota Kinabalu,5.98,116.11,Malaysia,MY,MYS,Sabah,admin,527671,1458441859
Kuching,Kuching,1.53,110.33,Malaysia,MY,MYS,Sarawak,admin,570407,1458462262
Ipoh,Ipoh,4.6,101.065,Malaysia,MY,MYS,Perak,admin,673318,1458423505
Malacca,Malacca,2.2064,102.2465,Malaysia,MY,MYS,Melaka,,788706,1458467506
Butterworth,Butterworth,5.4171,100.4,Malaysia,MY,MYS,Pulau Pinang,,821652,1458469233
Johor Bahru,Johor Bahru,1.48,103.73,Malaysia,MY,MYS,Johor,admin,875000,1458747615
Kelang,Kelang,3.0204,101.55,Malaysia,MY,MYS,Selangor,admin,956000,1458509635
Kuala Lumpur,Kuala Lumpur,3.1667,101.7,Malaysia,MY,MYS,Kuala Lumpur ,primary,1448000,1458988644
George Town,George Town,5.4136,100.3294,Malaysia,MY,MYS,Pulau Pinang,admin,2500000,1458236750
Mocambique,Mocambique,-15.0399,40.6822,Mozambique,MZ,MOZ,Nampula,,54315,1508063712
Angoche,Angoche,-16.23,39.91,Mozambique,MZ,MOZ,Nampula,,57835,1508591443
Mocuba,Mocuba,-16.8496,38.26,Mozambique,MZ,MOZ,Zambézia,,68984,1508699932
Montepuez,Montepuez,-13.1196,39,Mozambique,MZ,MOZ,Cabo Delgado,,72279,1508552201
Cuamba,Cuamba,-14.7896,36.54,Mozambique,MZ,MOZ,Niassa,,73268,1508862081
Dondo,Dondo,-19.6196,34.73,Mozambique,MZ,MOZ,Sofala,,78648,1508741848
Lichinga,Lichinga,-13.3,35.24,Mozambique,MZ,MOZ,Niassa,admin,109839,1508041628
Pemba,Pemba,-12.983,40.5323,Mozambique,MZ,MOZ,Cabo Delgado,admin,110643,1508872233
Inhambane,Inhambane,-23.858,35.3398,Mozambique,MZ,MOZ,Inhambane,admin,115776,1508945412
Maxixe,Maxixe,-23.866,35.3886,Mozambique,MZ,MOZ,Inhambane,,119868,1508002342
Xai-Xai,Xai-Xai,-25.04,33.64,Mozambique,MZ,MOZ,Gaza,admin,128805,1508689070
Tete,Tete,-16.17,33.58,Mozambique,MZ,MOZ,Tete,admin,129316,1508476900
Quelimane,Quelimane,-17.88,36.89,Mozambique,MZ,MOZ,Zambézia,admin,188964,1508396687
Nacala,Nacala,-14.5186,40.715,Mozambique,MZ,MOZ,Nampula,,224795,1508752825
Chimoio,Chimoio,-19.12,33.47,Mozambique,MZ,MOZ,Manica,admin,256936,1508460246
Nampula,Nampula,-15.136,39.293,Mozambique,MZ,MOZ,Nampula,admin,388526,1508958445
Beira,Beira,-19.82,34.87,Mozambique,MZ,MOZ,Sofala,admin,530604,1508407369
Matola,Matola,-25.9696,32.46,Mozambique,MZ,MOZ,Maputo,,543907,1508768577
Maputo,Maputo,-25.9553,32.5892,Mozambique,MZ,MOZ,Maputo,primary,1446000,1508074843
Rundu,Rundu,-17.92,19.7499,Namibia,NA,NAM,Kavango East,admin,58172,1516885937
Windhoek,Windhoek,-22.57,17.0835,Namibia,NA,NAM,Khomas,primary,268132,1516802003
Nouméa,Noumea,-22.2625,166.4443,New Caledonia,NC,NCL,Province Sud,primary,93060,1540958092
Birni Nkonni,Birni Nkonni,13.7904,5.2599,Niger,NE,NER,Tahoua,minor,65252,1562868655
Arlit,Arlit,18.82,7.33,Niger,NE,NER,Agadez,minor,100000,1562695011
Tahoua,Tahoua,14.9,5.2599,Niger,NE,NER,Tahoua,admin,115956,1562214493
Agadez,Agadez,16.9959,7.9828,Niger,NE,NER,Agadez,admin,117770,1562789067
Zinder,Zinder,13.8,8.9833,Niger,NE,NER,Zinder,admin,230358,1562758258
Maradi,Maradi,13.4916,7.0964,Niger,NE,NER,Maradi,admin,232555,1562200314
Niamey,Niamey,13.5167,2.1167,Niger,NE,NER,Niamey,primary,915000,1562932886
Lokoja,Lokoja,7.8004,6.7399,Nigeria,NG,NGA,Kogi,admin,60579,1566772925
Oturkpo,Oturkpo,7.1904,8.13,Nigeria,NG,NGA,Benue,minor,68220,1566465153
Onitsha,Onitsha,6.1404,6.78,Nigeria,NG,NGA,Anambra,minor,73374,1566593483
Idah,Idah,7.1104,6.7399,Nigeria,NG,NGA,Kogi,minor,75087,1566566689
Numan,Numan,9.4604,12.04,Nigeria,NG,NGA,Adamawa,minor,77617,1566815415
Keffi,Keffi,8.849,7.8736,Nigeria,NG,NGA,Nasarawa,minor,85911,1566364417
Potiskum,Potiskum,11.7104,11.08,Nigeria,NG,NGA,Yobe,minor,86002,1566461523
Wukari,Wukari,7.8704,9.78,Nigeria,NG,NGA,Taraba,minor,92933,1566025302
Biu,Biu,10.6204,12.19,Nigeria,NG,NGA,Borno,minor,95005,1566675681
Yola,Yola,9.21,12.48,Nigeria,NG,NGA,Adamawa,admin,96006,1566782065
Iseyin,Iseyin,7.97,3.59,Nigeria,NG,NGA,Oyo,minor,98071,1566714777
Kontagora,Kontagora,10.4004,5.4699,Nigeria,NG,NGA,Niger,minor,98754,1566599231
Azare,Azare,11.6804,10.19,Nigeria,NG,NGA,Bauchi,minor,105687,1566322480
Birnin Kebbi,Birnin Kebbi,12.4504,4.1999,Nigeria,NG,NGA,Kebbi,admin,108164,1566191812
Nguru,Nguru,12.8804,10.45,Nigeria,NG,NGA,Yobe,minor,111014,1566737779
Nsukka,Nsukka,6.867,7.3834,Nigeria,NG,NGA,Enugu,minor,111017,1566882360
Jalingo,Jalingo,8.9004,11.36,Nigeria,NG,NGA,Taraba,admin,117757,1566732241
Bama,Bama,11.5204,13.69,Nigeria,NG,NGA,Borno,minor,118121,1566590565
Gashua,Gashua,12.8705,11.04,Nigeria,NG,NGA,Yobe,minor,125817,1566925429
Lafia,Lafia,8.4904,8.52,Nigeria,NG,NGA,Nasarawa,admin,127236,1566042542
Bida,Bida,9.0804,6.01,Nigeria,NG,NGA,Niger,minor,173849,1566468363
Funtua,Funtua,11.5204,7.32,Nigeria,NG,NGA,Katsina,minor,180475,1566877863
Ijebu Ode,Ijebu Ode,6.8204,3.92,Nigeria,NG,NGA,Ogun,minor,209175,1566495747
Owerri,Owerri,5.493,7.026,Nigeria,NG,NGA,Imo,admin,215038,1566679132
Mubi,Mubi,10.2703,13.27,Nigeria,NG,NGA,Adamawa,minor,225705,1566265170
Gusau,Gusau,12.1704,6.66,Nigeria,NG,NGA,Zamfara,admin,226857,1566383682
Iwo,Iwo,7.63,4.18,Nigeria,NG,NGA,Osun,minor,250443,1566462707
Damaturu,Damaturu,11.749,11.966,Nigeria,NG,NGA,Yobe,admin,255895,1566897107
Ondo,Ondo,7.0904,4.84,Nigeria,NG,NGA,Ondo,minor,257005,1566993724
Umuahia,Umuahia,5.532,7.486,Nigeria,NG,NGA,Abia,admin,264662,1566217980
Gombe,Gombe,10.2904,11.17,Nigeria,NG,NGA,Gombe,admin,270366,1566855445
Owo,Owo,7.2004,5.59,Nigeria,NG,NGA,Ondo,minor,276574,1566833788
Minna,Minna,9.62,6.55,Nigeria,NG,NGA,Niger,admin,291905,1566285237
Makurdi,Makurdi,7.73,8.53,Nigeria,NG,NGA,Benue,admin,292645,1566873994
Sapele,Sapele,5.8904,5.68,Nigeria,NG,NGA,Delta,minor,309162,1566310893
Bauchi,Bauchi,10.3104,9.84,Nigeria,NG,NGA,Bauchi,admin,316149,1566483284
Oshogbo,Oshogbo,7.7704,4.56,Nigeria,NG,NGA,Osun,admin,408245,1566395088
Akure,Akure,7.2504,5.2,Nigeria,NG,NGA,Ondo,admin,420594,1566568277
Katsina,Katsina,12.9904,7.6,Nigeria,NG,NGA,Katsina,admin,432149,1566777297
Ado Ekiti,Ado Ekiti,7.6304,5.22,Nigeria,NG,NGA,Ekiti,admin,446749,1566196391
Calabar,Calabar,4.9604,8.33,Nigeria,NG,NGA,Cross River,admin,461796,1566495489
Ife,Ife,7.4804,4.56,Nigeria,NG,NGA,Osun,minor,482365,1566756897
Awka,Awka,6.2104,7.07,Nigeria,NG,NGA,Anambra,admin,500000,1566560581
Uyo,Uyo,5.008,7.85,Nigeria,NG,NGA,Akwa Ibom,admin,554906,1566061694
Abeokuta,Abeokuta,7.1604,3.35,Nigeria,NG,NGA,Ogun,admin,593100,1566979497
Enugu,Enugu,6.45,7.5,Nigeria,NG,NGA,Enugu,admin,688862,1566212729
Sokoto,Sokoto,13.06,5.24,Nigeria,NG,NGA,Sokoto,admin,732178,1566574518
Oyo,Oyo,7.8504,3.93,Nigeria,NG,NGA,Oyo,minor,736072,1566930579
Ilorin,Ilorin,8.49,4.55,Nigeria,NG,NGA,Kwara,admin,771000,1566480168
Jos,Jos,9.93,8.89,Nigeria,NG,NGA,Plateau,admin,816824,1566773679
Warri,Warri,5.52,5.76,Nigeria,NG,NGA,Delta,minor,830106,1566325734
Zaria,Zaria,11.08,7.71,Nigeria,NG,NGA,Kaduna,minor,889000,1566287704
Maiduguri,Maiduguri,11.85,13.16,Nigeria,NG,NGA,Borno,admin,896000,1566540296
Aba,Aba,5.1004,7.35,Nigeria,NG,NGA,Abia,minor,897560,1566262000
Ogbomosho,Ogbomosho,8.13,4.24,Nigeria,NG,NGA,Oyo,minor,951000,1566373448
Port Harcourt,Port Harcourt,4.81,7.01,Nigeria,NG,NGA,Rivers,admin,1020000,1566070649
Ikare,Ikare,7.5304,5.76,Nigeria,NG,NGA,Ondo,minor,1099931,1566683694
Benin City,Benin City,6.3405,5.62,Nigeria,NG,NGA,Edo,admin,1190000,1566080151
Kaduna,Kaduna,10.52,7.44,Nigeria,NG,NGA,Kaduna,admin,1442000,1566368729
Abuja,Abuja,9.0833,7.5333,Nigeria,NG,NGA,Federal Capital Territory,primary,1576000,1566342270
Ibadan,Ibadan,7.38,3.93,Nigeria,NG,NGA,Oyo,admin,2628000,1566366407
Kano,Kano,12,8.52,Nigeria,NG,NGA,Kano,admin,3140000,1566422868
Lagos,Lagos,6.4433,3.3915,Nigeria,NG,NGA,Lagos,minor,9466000,1566593751
Juigalpa,Juigalpa,12.11,-85.38,Nicaragua,NI,NIC,Chontales,admin,54731,1558986603
Granada‎,Granada,11.9337,-85.95,Nicaragua,NI,NIC,Granada,admin,105219,1558101678
Estelí,Esteli,13.09,-86.36,Nicaragua,NI,NIC,Estelí,admin,107839,1558801854
Matagalpa,Matagalpa,12.9171,-85.9167,Nicaragua,NI,NIC,Matagalpa,admin,109089,1558728443
Masaya,Masaya,11.969,-86.095,Nicaragua,NI,NIC,Masaya,admin,130113,1558765329
Chinandega,Chinandega,12.6304,-87.13,Nicaragua,NI,NIC,Chinandega,admin,139023,1558172276
León,Leon,12.4356,-86.8794,Nicaragua,NI,NIC,León,admin,164441,1558654236
Managua,Managua,12.153,-86.2685,Nicaragua,NI,NIC,Managua,primary,920000,1558296252
Assen,Assen,53,6.55,Netherlands,NL,NLD,Drenthe,admin,62237,1528917714
Zwolle,Zwolle,52.524,6.097,Netherlands,NL,NLD,Overijssel,admin,111805,1528690076
Maastricht,Maastricht,50.853,5.677,Netherlands,NL,NLD,Limburg,admin,122378,1528563623
Leeuwarden,Leeuwarden,53.2504,5.7834,Netherlands,NL,NLD,Fryslân,admin,125778,1528992603
's-Hertogenbosch,'s-Hertogenbosch,51.6833,5.3167,Netherlands,NL,NLD,Noord-Brabant,admin,134520,1528012333
Arnhem,Arnhem,51.988,5.923,Netherlands,NL,NLD,Gelderland,admin,141674,1528862562
Groningen,Groningen,53.2204,6.58,Netherlands,NL,NLD,Groningen,admin,216688,1528295161
Haarlem,Haarlem,52.3804,4.63,Netherlands,NL,NLD,Noord-Holland,admin,349957,1528822178
Eindhoven,Eindhoven,51.43,5.5,Netherlands,NL,NLD,Noord-Brabant,minor,398053,1528636212
Utrecht,Utrecht,52.1003,5.12,Netherlands,NL,NLD,Utrecht,admin,640000,1528871692
Rotterdam,Rotterdam,51.92,4.48,Netherlands,NL,NLD,Zuid-Holland,minor,1005000,1528892850
Amsterdam,Amsterdam,52.35,4.9166,Netherlands,NL,NLD,Noord-Holland,primary,1031000,1528355309
The Hague,The Hague,52.08,4.27,Netherlands,NL,NLD,Zuid-Holland,primary,1406000,1528799905
Kristiansand,Kristiansand,58.1666,8,Norway,NO,NOR,Vest-Agder,admin,63814,1578642977
Skien,Skien,59.2,9.6,Norway,NO,NOR,Telemark,admin,73330,1578807356
Drammen,Drammen,59.7572,10.1907,Norway,NO,NOR,Buskerud,admin,90722,1578937195
Bærum,Baerum,59.9135,11.3472,Norway,NO,NOR,Akershus,,113659,1578429477
Trondheim,Trondheim,63.4167,10.4167,Norway,NO,NOR,,minor,147139,1578633461
Stavanger,Stavanger,58.97,5.68,Norway,NO,NOR,Rogaland,admin,173132,1578801684
Bergen,Bergen,60.391,5.3245,Norway,NO,NOR,Hordaland,admin,213585,1578465701
Oslo,Oslo,59.9167,10.75,Norway,NO,NOR,Oslo,primary,835000,1578324706
Bhairawa,Bhairawa,27.5333,83.3833,Nepal,NP,NPL,,,63367,1524444140
Nepalganj,Nepalganj,28.0503,81.6167,Nepal,NP,NPL,,,64400,1524207917
Dhangarhi,Dhangarhi,28.695,80.593,Nepal,NP,NPL,,,92294,1524561456
Birganj,Birganj,27.0004,84.8666,Nepal,NP,NPL,,,133238,1524676691
Biratnagar,Biratnagar,26.4837,87.2833,Nepal,NP,NPL,,,182324,1524520011
Pokhara,Pokhara,28.264,83.972,Nepal,NP,NPL,,,200000,1524416084
Hetauda,Hetauda,27.4167,85.0334,Nepal,NP,NPL,,,232334,1524551914
Lalitpur,Lalitpur,27.6666,85.3333,Nepal,NP,NPL,,,337785,1524593184
Kathmandu,Kathmandu,27.7167,85.3166,Nepal,NP,NPL,Bāgmatī,primary,895000,1524589448
Porirua,Porirua,-41.1219,174.8524,New Zealand,NZ,NZL,Wellington,,52500,1554561880
New Plymouth,New Plymouth,-39.0556,174.0748,New Zealand,NZ,NZL,Taranaki,,52500,1554939405
Rotorua,Rotorua,-38.1317,176.2483,New Zealand,NZ,NZL,Bay of Plenty,,56200,1554000379
Napier,Napier,-39.49,176.9265,New Zealand,NZ,NZL,Hawke’s Bay,,57800,1554064936
Nelson,Nelson,-41.2926,173.2474,New Zealand,NZ,NZL,Nelson,,60800,1554017097
Palmerston North,Palmerston North,-40.3527,175.6072,New Zealand,NZ,NZL,Manawatu-Wanganui,,82400,1554138183
Lower Hutt,Lower Hutt,-41.2037,174.9123,New Zealand,NZ,NZL,Wellington,,102400,1554623632
Dunedin,Dunedin,-45.8854,170.491,New Zealand,NZ,NZL,Otago,,117700,1554475997
Tauranga,Tauranga,-37.6964,176.1536,New Zealand,NZ,NZL,Bay of Plenty,,121500,1554759867
Hamilton,Hamilton,-37.7783,175.2896,New Zealand,NZ,NZL,Waikato,,148200,1554873040
North Shore,North Shore,-36.7913,174.7758,New Zealand,NZ,NZL,Auckland,,205605,1554717659
Waitakere,Waitakere,-36.8524,174.5543,New Zealand,NZ,NZL,Auckland,,208100,1554034359
Christchurch,Christchurch,-43.535,172.63,New Zealand,NZ,NZL,Canterbury,,363200,1554377228
Manukau,Manukau,-37,174.885,New Zealand,NZ,NZL,Auckland,,375600,1554797148
Wellington,Wellington,-41.3,174.7833,New Zealand,NZ,NZL,,primary,393400,1554772152
Auckland,Auckland,-36.8481,174.763,New Zealand,NZ,NZL,Auckland,,1377200,1554435911
Nizwa,Nizwa,22.9264,57.5314,Oman,OM,OMN,Ad Dākhilīyah,admin,72076,1512180300
Ibri,Ibri,23.2254,56.517,Oman,OM,OMN,Ad Dākhilīyah,admin,101640,1512077267
Suhar,Suhar,24.362,56.7344,Oman,OM,OMN,Shamāl al Bāţinah,,151349,1512145575
Salalah,Salalah,17.0255,54.0852,Oman,OM,OMN,Z̧ufār,admin,203877,1512995148
As Sib,As Sib,23.6802,58.1825,Oman,OM,OMN,Masqaţ,,237816,1512461161
Muscat,Muscat,23.6133,58.5933,Oman,OM,OMN,Masqaţ,primary,734697,1512035506
Balboa,Balboa,8.95,-79.5667,Panama,PA,PAN,Panamá,,62882,1591922184
David,David,8.4333,-82.4333,Panama,PA,PAN,Chiriquí,admin,110037,1591487342
Colón,Colon,9.365,-79.875,Panama,PA,PAN,Colón,admin,204000,1591599922
Panama City,Panama City,8.968,-79.533,Panama,PA,PAN,Panamá,primary,1281000,1591672475
Jaén,Jaen,-5.7096,-78.81,Peru,PE,PER,Cajamarca,,52493,1604707495
Tingo María,Tingo Maria,-9.2896,-75.99,Peru,PE,PER,Huánuco,,53177,1604736000
Ilo,Ilo,-17.64,-71.34,Peru,PE,PER,Moquegua,,53476,1604886582
Moquegua,Moquegua,-17.19,-70.94,Peru,PE,PER,Moquegua,admin,54517,1604230427
Abancay,Abancay,-13.6396,-72.89,Peru,PE,PER,Apurímac,admin,55111,1604782074
Paita,Paita,-5.09,-81.12,Peru,PE,PER,Piura,,56151,1604588759
Puerto Maldonado,Puerto Maldonado,-12.6,-69.1833,Peru,PE,PER,Madre de Dios,admin,67155,1604871130
Chulucanas,Chulucanas,-5.0896,-80.17,Peru,PE,PER,Piura,,68835,1604692561
Huacho,Huacho,-11.11,-77.6199,Peru,PE,PER,Lima,admin,80474,1604316784
Pisco,Pisco,-13.71,-76.22,Peru,PE,PER,Ica,,81207,1604438126
Huaraz,Huaraz,-9.53,-77.53,Peru,PE,PER,Ancash,admin,86934,1604026500
Chosica,Chosica,-11.93,-76.71,Peru,PE,PER,Lima,,88606,1604040866
Talara,Talara,-4.58,-81.28,Peru,PE,PER,Piura,,99074,1604790735
Tumbes,Tumbes,-3.57,-80.46,Peru,PE,PER,Tumbes,admin,109223,1604505281
Puno,Puno,-15.8329,-70.0333,Peru,PE,PER,Puno,admin,116552,1604227042
Cerro de Pasco,Cerro de Pasco,-10.69,-76.27,Peru,PE,PER,Pasco,admin,137232,1604446908
Cajamarca,Cajamarca,-7.15,-78.53,Peru,PE,PER,Cajamarca,admin,142665,1604091119
Chincha Alta,Chincha Alta,-13.4196,-76.14,Peru,PE,PER,Ica,,153076,1604035626
Huánuco,Huanuco,-9.92,-76.24,Peru,PE,PER,Huánuco,admin,158145,1604589102
Sullana,Sullana,-4.8896,-80.68,Peru,PE,PER,Piura,,160789,1604666111
Ayacucho,Ayacucho,-13.175,-74.22,Peru,PE,PER,Ayacucho,admin,166314,1604300430
Juliaca,Juliaca,-15.5,-70.14,Peru,PE,PER,Puno,,245675,1604174464
Ica,Ica,-14.068,-75.7255,Peru,PE,PER,Ica,admin,279420,1604607907
Tacna,Tacna,-18,-70.25,Peru,PE,PER,Tacna,admin,280098,1604388134
Pucallpa,Pucallpa,-8.3689,-74.535,Peru,PE,PER,Ucayali,admin,310750,1604478712
Chimbote,Chimbote,-9.07,-78.57,Peru,PE,PER,Ancash,,349846,1604199858
Cusco,Cusco,-13.525,-71.9722,Peru,PE,PER,Cusco,admin,361182,1604162901
Piura,Piura,-5.21,-80.63,Peru,PE,PER,Piura,admin,396932,1604331641
Huancayo,Huancayo,-12.08,-75.2,Peru,PE,PER,Junín,admin,412733,1604249985
Iquitos,Iquitos,-3.75,-73.25,Peru,PE,PER,Loreto,admin,458729,1604493809
Chiclayo,Chiclayo,-6.7629,-79.8366,Peru,PE,PER,Lambayeque,admin,596792,1604799615
Trujillo,Trujillo,-8.12,-79.02,Peru,PE,PER,La Libertad,admin,765171,1604613706
Arequipa,Arequipa,-16.42,-71.53,Peru,PE,PER,Arequipa,admin,815000,1604723954
Callao,Callao,-12.07,-77.135,Peru,PE,PER,Callao,admin,876877,1604422141
Lima,Lima,-12.048,-77.0501,Peru,PE,PER,Lima,primary,8012000,1604728603
Papeete,Papeete,-17.5334,-149.5667,French Polynesia,PF,PYF,,primary,131695,1258907380
Mt. Hagen,Mt. Hagen,-5.8632,144.2168,Papua New Guinea,PG,PNG,Western Highlands,,59064,1598400611
Madang,Madang,-5.2248,145.7853,Papua New Guinea,PG,PNG,Madang,,62023,1598116558
Lae,Lae,-6.733,146.99,Papua New Guinea,PG,PNG,Morobe,,131052,1598466091
Port Moresby,Port Moresby,-9.4647,147.1925,Papua New Guinea,PG,PNG,National Capital,primary,283733,1598685395
Calbayog,Calbayog,12.0672,124.6042,Philippines,PH,PHL,Samar,,67921,1608088739
Surigao,Surigao,9.7843,125.4888,Philippines,PH,PHL,Surigao del Norte,admin,87832,1608611556
Ozamis,Ozamis,8.1462,123.8444,Philippines,PH,PHL,Misamis Occidental,,97806,1608100412
Roxas,Roxas,11.5853,122.7511,Philippines,PH,PHL,Capiz,admin,102688,1608344583
Tuguegarao,Tuguegarao,17.6131,121.7269,Philippines,PH,PHL,Cagayan,admin,115105,1608110634
Puerto Princesa,Puerto Princesa,9.7543,118.7444,Philippines,PH,PHL,Puerto Princesa,admin,157144,1608455700
Pagadian,Pagadian,7.853,123.507,Philippines,PH,PHL,Zamboanga del Sur,admin,159590,1608329397
Dagupan,Dagupan,16.0479,120.3408,Philippines,PH,PHL,Dagupan,admin,163676,1608530964
Ormac,Ormac,11.0643,124.6075,Philippines,PH,PHL,Ormoc,admin,167584,1608269612
Tarlac,Tarlac,15.4838,120.5834,Philippines,PH,PHL,Tarlac,admin,183930,1608237027
Butuan,Butuan,8.9495,125.5436,Philippines,PH,PHL,Butuan,admin,190557,1608000722
Laoag,Laoag,18.1988,120.5936,Philippines,PH,PHL,Ilocos Norte,admin,207048,1608043510
Cabanatuan,Cabanatuan,15.5021,120.9617,Philippines,PH,PHL,Nueva Ecija,,220250,1608247694
San Pablo,San Pablo,14.0696,121.3226,Philippines,PH,PHL,Laguna,,240830,1608801564
Cotabato,Cotabato,7.2169,124.2484,Philippines,PH,PHL,Cotabato,admin,279519,1608753128
Tacloban,Tacloban,11.2504,125,Philippines,PH,PHL,Tacloban,admin,280006,1608710592
Cadiz,Cadiz,10.9587,123.3086,Philippines,PH,PHL,Negros Occidental,,283157,1608224037
Olongapo,Olongapo,14.8296,120.2828,Philippines,PH,PHL,Olongapo,admin,304388,1608001640
Angeles,Angeles,15.1451,120.5451,Philippines,PH,PHL,Angeles,admin,314493,1608036027
Legazpi,Legazpi,13.17,123.75,Philippines,PH,PHL,Albay,admin,320081,1608693683
Iloilo,Iloilo,10.705,122.545,Philippines,PH,PHL,Iloilo,admin,387681,1608875987
Pasay City,Pasay City,14.5504,121,Philippines,PH,PHL,Pasay,admin,403064,1608448280
Batangas,Batangas,13.7817,121.0217,Philippines,PH,PHL,Batangas,admin,424508,1608417616
Baguio City,Baguio City,16.43,120.5699,Philippines,PH,PHL,Baguio,admin,447824,1608164766
Iligan,Iligan,8.1712,124.2154,Philippines,PH,PHL,Iligan,admin,464599,1608000268
Naga,Naga,13.6192,123.1814,Philippines,PH,PHL,Naga,admin,741635,1608775993
Zamboanga,Zamboanga,6.92,122.08,Philippines,PH,PHL,Zamboanga,admin,773000,1608189351
Cebu,Cebu,10.32,123.9001,Philippines,PH,PHL,Cebu,admin,815000,1608136151
Bacolod,Bacolod,10.6317,122.9817,Philippines,PH,PHL,Bacolod,admin,949354,1608244137
General Santos,General Santos,6.1108,125.1747,Philippines,PH,PHL,General Santos,admin,950530,1608171585
Cagayan de Oro,Cagayan de Oro,8.4508,124.6853,Philippines,PH,PHL,Cagayan de Oro,admin,1121561,1608831546
Davao,Davao,7.11,125.63,Philippines,PH,PHL,Davao,admin,1402000,1608906877
Quezon City,Quezon City,14.6504,121.03,Philippines,PH,PHL,Quezon,admin,2761720,1608974097
Manila,Manila,14.6042,120.9822,Philippines,PH,PHL,,primary,11100000,1608618140
Parachinar,Parachinar,33.8992,70.1008,Pakistan,PK,PAK,Federally Administered Tribal Areas,,55685,1586337795
Mansehra,Mansehra,34.3418,73.1968,Pakistan,PK,PAK,Khyber Pakhtunkhwa,minor,66486,1586902336
Zhob,Zhob,31.349,69.4386,Pakistan,PK,PAK,Balochistān,minor,88356,1586969046
Chaman,Chaman,30.925,66.4463,Pakistan,PK,PAK,Balochistān,,88568,1586640695
Dera Ismail Khan,Dera Ismail Khan,31.829,70.8986,Pakistan,PK,PAK,Khyber Pakhtunkhwa,minor,101616,1586008360
Turbat,Turbat,25.9918,63.0718,Pakistan,PK,PAK,Balochistān,,147791,1586017339
Sadiqabad,Sadiqabad,28.3006,70.1302,Pakistan,PK,PAK,Punjab,,189876,1586378758
Chiniot,Chiniot,31.72,72.98,Pakistan,PK,PAK,Punjab,minor,201781,1586413435
Gilgit,Gilgit,35.9171,74.3,Pakistan,PK,PAK,Gilgit-Baltistan,minor,216760,1586284242
Okara,Okara,30.8104,73.45,Pakistan,PK,PAK,Punjab,minor,223648,1586880900
Nawabshah,Nawabshah,26.2454,68.4,Pakistan,PK,PAK,Sindh,minor,229504,1586294005
Sahiwal,Sahiwal,30.6717,73.1118,Pakistan,PK,PAK,Punjab,minor,235695,1586672083
Dera Ghazi Khan,Dera Ghazi Khan,30.0604,70.6351,Pakistan,PK,PAK,Punjab,minor,236093,1586002238
Kasur,Kasur,31.1254,74.455,Pakistan,PK,PAK,Punjab,minor,290643,1586858135
Mardan,Mardan,34.2,72.04,Pakistan,PK,PAK,Khyber Pakhtunkhwa,minor,300424,1586001546
Gujrat,Gujrat,32.58,74.08,Pakistan,PK,PAK,Punjab,minor,301506,1586006990
Jhang,Jhang,31.2804,72.325,Pakistan,PK,PAK,Punjab,minor,341210,1586288677
Kohat,Kohat,33.6027,71.4327,Pakistan,PK,PAK,Khyber Pakhtunkhwa,minor,343027,1586349992
Rahim Yar Khan,Rahim Yar Khan,28.4202,70.2952,Pakistan,PK,PAK,Punjab,,353203,1586136399
Mirput Khas,Mirput Khas,25.5318,69.0118,Pakistan,PK,PAK,Sindh,minor,356435,1586156251
Sheikhu Pura,Sheikhu Pura,31.72,73.99,Pakistan,PK,PAK,Punjab,minor,361303,1586291726
Larkana,Larkana,27.5618,68.2068,Pakistan,PK,PAK,Sindh,minor,364033,1586678302
Sukkur,Sukkur,27.7136,68.8486,Pakistan,PK,PAK,Sindh,minor,417767,1586383591
Sialkote,Sialkote,32.52,74.56,Pakistan,PK,PAK,Punjab,minor,477396,1586141444
Sargodha,Sargodha,32.0854,72.675,Pakistan,PK,PAK,Punjab,minor,542603,1586696588
Bahawalpur,Bahawalpur,29.39,71.675,Pakistan,PK,PAK,Punjab,minor,552607,1586038700
Bannu,Bannu,32.989,70.5986,Pakistan,PK,PAK,Khyber Pakhtunkhwa,minor,622419,1586858934
Quetta,Quetta,30.22,67.025,Pakistan,PK,PAK,Balochistān,admin,768000,1586556108
Islamabad,Islamabad,33.7,73.1666,Pakistan,PK,PAK,Islāmābād,primary,780000,1586306717
Abbottabad,Abbottabad,34.1495,73.1995,Pakistan,PK,PAK,Khyber Pakhtunkhwa,minor,1183647,1586788758
Peshawar,Peshawar,34.005,71.535,Pakistan,PK,PAK,Khyber Pakhtunkhwa,admin,1303000,1586851102
Hyderabad,Hyderabad,25.38,68.375,Pakistan,PK,PAK,Sindh,,1459000,1586427790
Gujranwala,Gujranwala,32.1604,74.185,Pakistan,PK,PAK,Punjab,minor,1513000,1586400472
Multan,Multan,30.2,71.455,Pakistan,PK,PAK,Punjab,minor,1522000,1586256291
Rawalpindi,Rawalpindi,33.6,73.04,Pakistan,PK,PAK,Punjab,minor,1858000,1586344001
Saidu,Saidu,34.75,72.35,Pakistan,PK,PAK,Khyber Pakhtunkhwa,minor,1860310,1586619596
Faisalabad,Faisalabad,31.41,73.11,Pakistan,PK,PAK,Punjab,minor,2617000,1586323916
Lahore,Lahore,31.56,74.35,Pakistan,PK,PAK,Punjab,admin,6577000,1586801463
Karachi,Karachi,24.87,66.99,Pakistan,PK,PAK,Sindh,admin,12130000,1586129469
Ełk,Elk,53.8337,22.35,Poland,PL,POL,Warmińsko-Mazurskie,minor,55769,1616783003
Inowrocław,Inowroclaw,52.7799,18.25,Poland,PL,POL,Kujawsko-Pomorskie,minor,79007,1616606592
Grudziądz,Grudziadz,53.4804,18.75,Poland,PL,POL,Kujawsko-Pomorskie,minor,102443,1616391533
Koszalin,Koszalin,54.2,16.1833,Poland,PL,POL,Zachodniopomorskie,minor,107450,1616258002
Zielona Góra,Zielona Gora,51.9504,15.5,Poland,PL,POL,Lubuskie,admin,118433,1616050904
Elbląg,Elblag,54.19,19.4027,Poland,PL,POL,Warmińsko-Mazurskie,minor,127558,1616395994
Opole,Opole,50.685,17.9313,Poland,PL,POL,Opolskie,admin,131412,1616096837
Olsztyn,Olsztyn,53.8,20.48,Poland,PL,POL,Warmińsko-Mazurskie,admin,186670,1616383275
Kielce,Kielce,50.8904,20.66,Poland,PL,POL,Świętokrzyskie,admin,215733,1616176351
Rzeszów,Rzeszow,50.0705,22,Poland,PL,POL,Podkarpackie,admin,245686,1616879570
Białystok,Bialystok,53.1504,23.17,Poland,PL,POL,Podlaskie,admin,291855,1616443575
Gdynia,Gdynia,54.5204,18.53,Poland,PL,POL,Pomorskie,minor,314664,1616385189
Lublin,Lublin,51.2504,22.5727,Poland,PL,POL,Lubelskie,admin,360044,1616953501
Bydgoszcz,Bydgoszcz,53.1204,18.01,Poland,PL,POL,Kujawsko-Pomorskie,admin,366452,1616454014
Szczecin,Szczecin,53.4204,14.53,Poland,PL,POL,Zachodniopomorskie,admin,407811,1616256546
Gliwice,Gliwice,50.3304,18.67,Poland,PL,POL,Śląskie,minor,507670,1616311376
Poznań,Poznan,52.4058,16.8999,Poland,PL,POL,Wielkopolskie,admin,623997,1616725607
Wrocław,Wroclaw,51.1104,17.03,Poland,PL,POL,Dolnośląskie,admin,634893,1616108520
Bytom,Bytom,50.35,18.91,Poland,PL,POL,Śląskie,minor,662247,1616740907
Gdańsk,Gdansk,54.36,18.64,Poland,PL,POL,Pomorskie,admin,740000,1616406372
Kraków,Krakow,50.06,19.96,Poland,PL,POL,Małopolskie,admin,756000,1616172264
Łódź,Lodz,51.775,19.4514,Poland,PL,POL,Łódzkie,admin,758000,1616832750
Warsaw,Warsaw,52.25,21,Poland,PL,POL,Mazowieckie,primary,1707000,1616024847
Katowice,Katowice,50.2604,19.02,Poland,PL,POL,Śląskie,admin,2746000,1616798495
Aveiro,Aveiro,40.641,-8.651,Portugal,PT,PRT,Aveiro,admin,54162,1620555869
Évora,Evora,38.56,-7.906,Portugal,PT,PRT,Évora,admin,55620,1620456226
Portimão,Portimao,37.1337,-8.5333,Portugal,PT,PRT,Faro,minor,61226,1620859274
Ponta Delgada,Ponta Delgada,37.7483,-25.6666,Portugal,PT,PRT,Azores,admin,61526,1620456537
Coimbra,Coimbra,40.2004,-8.4167,Portugal,PT,PRT,Coimbra,admin,106582,1620166724
Setúbal,Setubal,38.53,-8.9,Portugal,PT,PRT,Setúbal,admin,117974,1620174557
Funchal,Funchal,32.65,-16.88,Portugal,PT,PRT,Madeira,admin,204767,1620995356
Braga,Braga,41.555,-8.4213,Portugal,PT,PRT,Braga,admin,826833,1620949401
Porto,Porto,41.15,-8.62,Portugal,PT,PRT,Porto,admin,1337000,1620356810
Lisbon,Lisbon,38.7227,-9.1449,Portugal,PT,PRT,Lisboa,primary,2812000,1620619017
Concepción,Concepcion,-23.4064,-57.4344,Paraguay,PY,PRY,Concepción,admin,59118,1600557615
Coronel Oviedo,Coronel Oviedo,-25.45,-56.44,Paraguay,PY,PRY,Caaguazú,admin,88101,1600075989
Pedro Juan Caballero,Pedro Juan Caballero,-22.5446,-55.76,Paraguay,PY,PRY,Amambay,admin,102787,1600089732
Ciudad del Este,Ciudad del Este,-25.5167,-54.6161,Paraguay,PY,PRY,Alto Paraná,admin,320872,1600265252
Encarnación,Encarnacion,-27.3472,-55.8739,Paraguay,PY,PRY,Itapúa,admin,357119,1600377819
San Lorenzo,San Lorenzo,-25.34,-57.52,Paraguay,PY,PRY,Central,,500000,1600667303
Asunción,Asuncion,-25.2964,-57.6415,Paraguay,PY,PRY,Asunción,primary,1870000,1600057911
Doha,Doha,25.2866,51.533,Qatar,QA,QAT,Ad Dawḩah,primary,1450000,1634459660
St.-Denis,St.-Denis,-20.8789,55.4481,Reunion,RE,REU,,admin,190047,1638024662
Slobozia,Slobozia,44.57,27.382,Romania,RO,ROU,Ialomiţa,admin,52693,1642971618
Sfintu-Gheorghe,Sfintu-Gheorghe,45.868,25.793,Romania,RO,ROU,Covasna,admin,60677,1642189178
Zalău,Zalau,47.175,23.063,Romania,RO,ROU,Sălaj,admin,63232,1642791988
Alba Lulia,Alba Lulia,46.077,23.58,Romania,RO,ROU,Alba,admin,66085,1642449522
Deva,Deva,45.8833,22.9167,Romania,RO,ROU,Hunedoara,,67802,1642728479
Giurgiu,Giurgiu,43.93,25.84,Romania,RO,ROU,Giurgiu,admin,69067,1642984994
Vaslui,Vaslui,46.6333,27.7333,Romania,RO,ROU,Vaslui,admin,69225,1642644428
Călărași,Calarasi,44.2063,27.3259,Romania,RO,ROU,Călăraşi,admin,73224,1642445982
Slatina,Slatina,44.435,24.371,Romania,RO,ROU,Olt,admin,78988,1642577360
Bistrița,Bistrita,47.138,24.513,Romania,RO,ROU,Bistriţa-Năsăud,admin,81318,1642633889
Reșița,Resita,45.297,21.8865,Romania,RO,ROU,Caraş-Severin,admin,83324,1642047399
Târgoviște,Targoviste,44.938,25.459,Romania,RO,ROU,Dâmboviţa,admin,88435,1642534646
Tulcea,Tulcea,45.1993,28.7967,Romania,RO,ROU,Tulcea,admin,92475,1642854000
Târgu Jiu,Targu Jiu,45.045,23.274,Romania,RO,ROU,Gorj,admin,97179,1642174891
Piatra-Neamt,Piatra-Neamt,46.94,26.383,Romania,RO,ROU,Neamţ,admin,102688,1642444635
Focșani,Focsani,45.6966,27.1865,Romania,RO,ROU,Vrancea,admin,105112,1642736232
Suceava,Suceava,47.6377,26.2593,Romania,RO,ROU,Suceava,admin,105796,1642721443
Drobeta-Turnu Severin,Drobeta-Turnu Severin,44.6459,22.6659,Romania,RO,ROU,Mehedinţi,admin,106578,1642729144
Rimnicu Vilcea,Rimnicu Vilcea,45.11,24.383,Romania,RO,ROU,Vâlcea,admin,107558,1642348361
Satu Mare,Satu Mare,47.792,22.885,Romania,RO,ROU,Satu Mare,admin,112490,1642046798
Botoșani,Botosani,47.7484,26.6597,Romania,RO,ROU,Botoşani,admin,114783,1642183791
Buzău,Buzau,45.1565,26.8065,Romania,RO,ROU,Buzău,admin,130954,1642794918
Baia Mare,Baia Mare,47.6595,23.5791,Romania,RO,ROU,Maramureş,admin,136553,1642459769
Tirgu Mures,Tirgu Mures,46.5582,24.5578,Romania,RO,ROU,Mureş,admin,149433,1642875714
Sibiu,Sibiu,45.7971,24.1371,Romania,RO,ROU,Sibiu,admin,155565,1642393086
Arad,Arad,46.17,21.32,Romania,RO,ROU,Arad,admin,169065,1642996909
Pitești,Pitesti,44.8563,24.8758,Romania,RO,ROU,Argeş,admin,171021,1642781938
Bacău,Bacau,46.5784,26.9196,Romania,RO,ROU,Bacău,admin,199668,1642838304
